Title,Price,Bedrooms,Bathrooms,Longitude,Latitude
"Zurich, District 5 Escher Wyss",5326,2,2,8.5101746,47.391406
"Zurich, District 6 Unterstrass",3544,1,1,8.543127700000001,47.3866968
"Zurich, District 7 Fluntern",6583,3,2,8.556485799999997,47.3840998
"Zurich, District 8 Mühlebach",6511,2,2,8.5527619,47.3645607
"Zurich, District 8 Weinegg",3317,1,1,8.5572384,47.3661789
"Zurich, District 3 Wiedikon",5769,3,2,8.5203628,47.3713017
"Zurich, District 3 Wiedikon",4976,3,1,8.5108416,47.3700748
"Zurich, District 3 Wiedikon",1896,0,1,8.514229799999999,47.3755316
"Zurich, District 8 Weinegg",3111,1,1,8.557332599999999,47.3662404
"Zurich, District 9 Altstetten",2349,0,1,8.4739635,47.3907199
"Zurich, Horgen",3358,2,1,8.5825971,47.2655186
"Istanbul, Mecidiyeköy",841,1,2,28.996653100000003,41.0759582
"Zurich, Zollikon",3760,1,1,8.5813107,47.3415143
"Zurich, District 8 Weinegg",3997,2,1,8.560155500000002,47.36151479999999
"Zurich, District 8 Weinegg",6284,3,1,8.559407900000002,47.36386349999999
"Zurich, District 8 Weinegg",3482,1,1,8.5572384,47.3661789
"Zurich, District 9 Altstetten",3657,2,1,8.4739635,47.3907199
"Zurich, District 9 Altstetten",3606,2,1,8.4938127,47.38531769999999
"Zurich, District 9 Altstetten",3863,2,1,8.4739635,47.3907199
"Zurich, Horgen",2565,1,1,8.6021419,47.259224
"Zurich, Horgen",2781,1,1,8.6021419,47.259224
"Zurich, Opfikon",5048,3,2,8.561298,47.4214887
"Zurich, District 3 Wiedikon",2102,0,1,8.514229799999999,47.3755316
"Zurich, District 3 Wiedikon",2112,0,1,8.514229799999999,47.3755316
"Zurich, District 3 Wiedikon",2163,0,1,8.514229799999999,47.3755316
"Zurich, District 3 Wiedikon",1988,0,1,8.514229799999999,47.3755316
"Zurich, District 3 Wiedikon",2050,0,1,8.514229799999999,47.3755316
"Zurich, District 3 Wiedikon",2112,0,1,8.514229799999999,47.3755316
"Zurich, District 3 Wiedikon",2019,0,1,8.514229799999999,47.3755316
"Istanbul, Gayrettepe",1601,1,2,29.00953890290225,41.062567698048134
"Portimao, Alvor Portimão",780,1,1,,
"Lagos, Meia Praia",1020,0,1,,
"Portimao, R. Eng. José De Bívar",960,2,2,,
"Portimao, Praia Da Rocha Portimão",1200,2,1,,
"Vilamoura,  Loulé",1800,3,2,,
"Silves,",1050,1,1,,
Tavira Apartment for rent,1020,2,2,,
Vila do Bispo House for rent,1560,2,2,,
"Portimao, Praia Da Rocha",550,0,1,,
"Lagos,",900,2,1,,
"Portimao, Praia Da Rocha",550,0,1,,
"Portimao, Praia Da Rocha Portimão",820,0,1,,
"Loule, Quarteira",1200,2,2,,
"Vilamoura,",1080,1,1,,
"Lagos, Meia-Praia",1800,2,2,,
"Vilamoura,  Loulé",960,2,2,,
Albufeira Apartment for rent,540,0,1,,
Alhaurin el Grande Country-House for rent,2300,5,1,,
Athens Apartment for rent,3500,3,1,,
Athens Apartment for rent,6500,3,1,,
Paphos House for rent,2500,3,2,,
Paphos Apartment for rent,1200,2,1,,
"thessaloniki, Nea Paralia, Thessaloniki - Cen",480,0,1,22.95296464973753,40.6155835182759
"thessaloniki, Nea Paralia, Thessaloniki - Cen",500,2,1,22.95395030185242,40.613294257307494
"thessaloniki, Martiou, Thessaloniki - Center",750,2,1,22.95198049895019,40.60034678660429
Durres Apartment for rent,350,2,2,,
Durres Apartment for rent,220,2,2,,
Durres Commercial for rent,250,0,1,,
Durres Commercial for rent,11000,0,1,,
Durres Apartment for rent,300,2,1,,
Durres Apartment for rent,210,2,1,,
Durres Apartment for rent,330,1,1,,
"Tirana, Rruga E Dibres - Selvia",1000,0,1,19.823771,41.334832
"Tirana, Kodra E Diellit",210,1,1,19.7997747,41.3079195
Tirana Apartment for rent,550,2,2,19.8034331,41.3258217
Frenaros House for rent,925,3,1,,
Germasogeia Commercial for rent,40000,0,1,,
Germasogeia Apartment for rent,6300,3,3,,
Limassol Apartment for rent,12500,3,4,,
Katholiki Apartment for rent,3300,2,2,,
"Budapest, Andrássy Ave. Penthouse With Terrac",1500,1,1,19.072,47.5106
"Budapest, Falk Miksa Street",1700,3,1,19.0488,47.5116
"Budapest, Andrássy Ave. Penthouse With 2 Terr",2500,2,1,19.072,47.5106
"Budapest, Andrássy Ave. Penthouse With 2 Terr",2500,2,1,19.072,47.5106
"Budapest, Andrássy Ave. Penthouse With Terrac",1500,1,1,19.072,47.5106
"Akrotiri, Kalorrouma",30000,0,1,24.146196430782474,35.54835174499585
"Barcelona, Antiga Esquerra de l'Eixample",2040,2,1,2.1531376,41.3859135
"Athens, Chalandri",1410,2,1,23.813255300000037,38.0266767
"Athens, Cholargos",1220,2,1,23.8039732,38.0058762
"Athens, Marousi",2160,4,2,23.804817400000047,38.03253040000001
"Athens, Cholargos",1120,1,1,23.79801519999999,37.99904190000001
"Athens, Neo Psychiko",1450,2,1,23.7787955,38.0064644
"London, Covent Garden",5306,2,1,-0.1261343,51.5135681
"London, Charing cross",3924,1,1,-0.1238886,51.5082409
"London, Canary Wharf",5689,2,2,-0.0192002,51.4995533
"London, Charing cross",4331,2,1,-0.1238886,51.5082409
"London, Charing cross",6049,2,2,-0.123941,51.5084919
"London, Charing cross",4296,1,1,-0.1238886,51.5082409
"London, Chelsea",4958,1,1,-0.1683855,51.4877954
"London, Clerkenwell",3657,0,1,-0.1063344,51.520821
"Athens, Palaio Faliro",1680,2,1,23.708355,37.928064
"Athens, Acropolis",1840,2,1,23.7247812,37.96655690000001
"Athens, Marousi",980,3,1,23.7686517,38.0345292
"Athens, Stavros Niarchos Park Area",1050,1,1,23.6932225,37.9457311
"Barcelona, El Born",2630,2,1,2.1810497,41.3896867
"Basel, Matthäus",2472,1,1,7.590466399999999,47.5660348
"Berlin, Neukölln",1440,1,1,13.446242,52.479007
"Athens, Agia Paraskevi",1510,3,2,23.8265252,38.0046051
"Istanbul, Atasehir",1533,2,1,29.12278600000002,40.99287169999999
"Istanbul, Besiktas",2144,3,2,28.9995482,41.0465746
"Istanbul, Ulus",1996,3,1,29.0288422,41.0719937
"Istanbul, Tomtom",2165,3,2,28.9782849,41.03051989999999
"Istanbul, Fenerbahçe",1714,2,2,29.0425832,40.9775745
"Istanbul, Küçükyali",1128,1,1,29.1177611,40.9474974
"Istanbul, Ümraniye",1063,1,1,29.09044510000001,41.0325548
"Istanbul, Bebek",1671,1,1,29.042296999999962,41.078065
"Istanbul, Emirgan",1888,3,1,29.051405799999998,41.1023971
"Istanbul, Fenerbahçe",2672,3,2,29.0543594,40.9721488
"Istanbul, Göztepe",2284,3,1,29.0659706,40.9713413
"Athens, Glyfada",1750,3,1,23.7616791,37.87417860000001
"Athens, Palaio Faliro",1620,2,2,23.6876592,37.929384
"Berlin, Mitte",1990,1,1,13.39027,52.50601
"Athens, Glyfada",1580,2,2,23.7603758,37.8772864
"Athens, Acropolis",1300,2,1,23.7271827,37.967006
"Athens, Marousi",1590,3,1,23.81626849999998,38.04598149999999
"Athens, Psychiko",1580,2,1,23.771875300000033,38.0008595
"Basel, Vorstädte",3235,2,1,7.582607799999999,47.5652435
"Barcelona, La Dreta de l'Eixample",2880,2,2,2.1689137,41.392154
"Berlin, Charlottenburg",2190,1,1,13.30854,52.49972
"Istanbul, Levazim",1996,3,2,29.0204881,41.0582777
"Lisbon, Santo António",2380,1,1,-9.1460109,38.7282355
"London, Canary Wharf",4273,1,1,-0.0192002,51.4995533
"Lisbon, Principe Real",1810,1,1,-9.146772,38.7171755
"Lisbon, Parque das Naçoes",2170,1,1,-9.097876299999998,38.7746579
"London, Canary Wharf",3170,1,1,-0.0191684,51.501474
"London, Whitechapel/Brick Lane",5341,2,2,-0.0690358,51.51397249999999
"London, Canary Wharf",3727,1,1,-0.0185601,51.5010795
"Lisbon, Parque das Naçoes",1820,1,1,-9.098258099999997,38.7564395
"Istanbul, Nisbetiye",2235,4,2,29.03075896679536,41.076095124956126
"Istanbul, Nisbetiye",2799,3,2,29.0211828,41.0764518
"Istanbul, Nisbetiye",1172,2,1,29.0215045,41.0721611
"Istanbul, Nisbetiye",1692,2,1,29.02116000000001,41.07412799999999
"Istanbul, Nisbetiye",2951,4,3,29.01987310000004,41.06987780000001
"Istanbul, Nisbetiye",1758,2,1,29.0192338,41.0725862
"Istanbul, Nisbetiye",2626,2,1,29.021613500000058,41.07236520000001
"Istanbul, Nisbetiye",2474,3,2,29.01987310000004,41.06987780000001
"Istanbul, Nisbetiye",1736,2,2,29.02160200000003,41.0760361
"Istanbul, Nisbetiye",2539,2,2,29.021631,41.075843
"Athens, Melissia",1130,2,1,23.8371201,38.04882349999999
"Athens, Vasilissis Sofias Avenue",1570,3,1,23.760988399999974,37.9839578
"Athens, Elliniko",970,1,1,23.730852099999993,37.8822626
"Athens, Filothei",1440,2,1,23.77927890000001,38.02544049999999
"Athens, Glyfada",2100,3,1,23.7600057,37.8540639
"Athens, Glyfada",1250,2,1,23.762602,37.8764265
"Athens, Palaio Faliro",1870,3,2,23.7005952,37.9280057
"Athens, Glyfada",1110,1,1,23.746744,37.881917
"Paris, Quartier Latin",2690,1,1,2.346665299999999,48.8525135
"Paris, Jardin des Plantes",4700,2,2,2.3615951,48.8402924
"Athens, Historic Center",1300,2,1,23.7294574,37.978736
"Athens, Historic Center",1010,1,1,23.7425272,37.9878434
"Lagos, Meia-Praia",1100,2,1,,
"Tavira,",950,2,2,,
Lagoa House for rent,3900,3,3,,
Lagos Apartment for rent,840,2,2,,
"Albufeira,",780,1,1,,
"Vilamoura,",1200,2,2,,
Silves House for rent,1680,3,2,,
"Portimao, Alvor Portimão",995,2,1,,
"Silves,",1200,2,1,,
"Lagos, Praia Da Luz",1200,1,1,,
"Lagos, Praia Da Luz",1400,2,1,,
"Lagoa, Ferragudo",805,2,1,,
"Lagos, Praia Da Luz",1200,1,1,,
"Vilamoura,  Loulé",1050,1,1,,
"Vilamoura,",1800,2,2,,
"Tavira,",1200,2,2,,
"Vila do Bispo, Burgau",1440,3,2,,
"Albufeira,",1200,2,2,,
"Lagoa, Carvoeiro",4000,5,5,,
Portimao Condo for rent,990,1,1,,
"Portimao, Monte Canelas Portimão",1980,4,2,,
"Lagos, Praia Da Luz",1900,2,2,,
Lagos Condo for rent,2500,2,2,,
"Portimao, Rua Serpa Pinto Alvor",900,1,1,,
Lagos Condo for rent,1800,1,1,,
Albufeira Condo for rent,1400,1,1,,
"Portimao, Praia Da Rocha Portimão",1080,0,1,,
"Vilamoura,  Loulé",2600,4,4,,
"Lagoa, Carvoeiro",805,2,1,,
"Lagos,",1040,2,2,,
Lesbos House for rent,1300,3,2,,
Athens Apartment for rent,520,1,1,,
Ta-Xbiex Apartment for rent,4000,3,3,14.49589000,35.89963000
Sliema Office-Space for rent,3165,0,1,14.50650000,35.90942000
Sliema Apartment for rent,4000,3,2,14.49931000,35.91762000
Portimao House for rent,2160,2,3,,
"Bacvice, , Split",1000,0,1,,
Engomi Apartment for rent,1000,1,1,,
Paralimni House for rent,3500,6,4,,
Knin Apartment for rent,500,2,1,,
Rruga-E-Elbasanit Apartment for rent,450,1,1,19.82648739832181,41.32113052479826
"Veliko Tarnovo, ulitsa 6- house 10",3000,3,4,25.643625805158898,43.35044386901497
Athens Apartment for rent,250,1,1,,
Athens Apartment for rent,1200,1,1,,
Nueva Andalucia House for rent,3700,4,4,,
St Julians Apartment for rent,4500,3,2,14.49297000,35.92205000
Bahar-Ic-Caghaq Apartment for rent,2000,3,2,14.45485000,35.93818000
"Krakow, Kraków, Sródmiescie, Rakowice, Rakowi",581,1,1,,
"Athens,  North/Agia Paraskevi",400,1,1,23.8304833565918,38.0046057380563
"Athens,  South/Palaio Faliro",750,2,1,23.7178360579804,37.9262931643364
Albufeira House for rent,840,1,1,,
Albufeira Apartment for rent,1800,3,2,,
"Lagos, Praia Da Luz",1450,3,2,,
Albufeira House for rent,1800,2,2,,
"Portimao, Avenida São João De Deus",980,2,2,,
Loule Apartment for rent,1200,2,1,,
"Lagos,",930,0,1,,
"Loule, Loulé",1620,2,2,,
"Faro, Praia Da Rocha Portimão",675,1,1,,
"Lagoa, Parchal",1500,2,2,,
"Vila Real de Santo Antonio, Manta Rota",1350,3,2,,
"Lagos, Praia Da Luz",1020,1,1,,
"Vila Real de Santo Antonio, Manta Rota",1300,4,3,,
"Vilamoura,",780,1,1,,
"Albufeira, Praia Da Galé",920,1,1,,
"Lagoa, Ferragudo",1080,2,2,,
Albufeira Apartment for rent,840,1,1,,
"Lagoa, Ferragudo",850,2,1,,
"Vila Real de Santo Antonio, Vila Nova De Cace",1050,2,2,,
"Lagos, Meia-Praia",1320,2,2,,
"Albufeira, Praia Da Galé",1000,0,1,,
"Lagoa, Parchal",1100,0,1,,
"Vilamoura,",1620,3,2,,
"Lagos, Praia Da Luz",2180,2,2,,
Albufeira Apartment for rent,900,1,1,,
"Vilamoura,",900,1,1,,
"Portimao, Prainha Alvor",1250,2,2,,
"Lagos, Rua Direita Praia Da Luz",880,2,1,,
"Albufeira, Praia Da Galé",1150,2,2,,
"Lagos, Praia Da Luz",820,1,1,,
"Tavira, Luz De",1300,3,2,,
"Vilamoura,  Loulé",1150,2,2,,
Lagoa Apartment for rent,1850,3,2,,
"Lagos, Praia Da Luz",1080,1,1,,
"Silves, Armação De Pêra",1150,3,2,,
"Vila Real de Santo Antonio, Manta Rota",960,2,1,,
Loule Apartment for rent,1270,2,2,,
"Lagoa, Carvoeiro",1650,1,1,,
Albufeira House for rent,840,1,1,,
Loule House for rent,7200,6,4,,
"Lisbon, Arroios",2190,2,1,-9.137019700000002,38.7277227
"Lisbon, Campo de Ourique",2920,2,2,-9.1634386,38.7175404
"Lisbon, Principe Real",2840,2,1,-9.152853200000001,38.7180109
"Lisbon, Alvalade",2880,3,2,-9.1408721,38.7549016
"Lisbon, Alcantara",2760,2,2,-9.1750464,38.7033716
"Lisbon, Alcantara",2660,2,2,-9.1756809,38.7054159
"Lisbon, Alcantara",3280,3,2,-9.1823223,38.7039439
"Lisbon, Avenidas Novas",3070,2,2,-9.146583999999999,38.73500749999999
"Athens, Koukaki",1080,1,1,23.721764500000063,37.96214459999999
"Istanbul, Yenitepe",1584,2,1,29.13967049999999,40.9898202
"Copenhagen, Frederiksberg",3255,2,1,12.5346184,55.6695358
"Istanbul, Yildiz - Çiragan",1844,2,1,29.011600999999928,41.0453742
"Lisbon, Santos",3210,2,1,-9.1492611,38.7084039
"Athens, Glyfada",1580,2,2,23.7603758,37.8772864
"Berlin, Prenzlauer Berg",2660,3,1,13.4258536,52.5347581
"Athens, Pefki",1350,2,1,23.786393,38.0534925
"Berlin, Charlottenburg",3760,3,2,13.3257354,52.5234877
"Berlin, Mitte",3960,3,2,13.4075162,52.50686480000001
"Barcelona, La Dreta de l'Eixample",3410,2,2,2.1658305,41.3871755
"Barcelona, Sagrada Familia",1940,1,1,2.1800265,41.4037667
"Athens, Kifisia",1140,1,1,23.819404899999995,38.0752064
"Athens, Kifisia",1890,2,2,23.825687399999993,38.0774229
"Athens, Papagou",1290,3,1,23.7903392,37.9796109
"Athens, Kifisia",2030,4,2,23.8220679,38.0785157
"Barcelona, La Dreta de l'Eixample",2230,1,1,2.1658305,41.3871755
"Berlin, Charlottenburg",1900,1,1,13.3322221,52.4973173
"Berlin, Friedrichshain",1940,1,1,13.4406259,52.5050299
"Berlin, Friedrichshain",1120,0,1,13.4583393,52.51099749999999
"Berlin, Friedrichshain",1750,1,1,13.4622975,52.50969419999999
"Berlin, Charlottenburg",4590,3,2,13.3257354,52.5234877
"Athens, Neo Psychiko",1510,2,1,23.775654300000042,37.9978379
"Athens, Vouliagmeni",1130,1,1,23.78019459999996,37.81896889999999
"Athens, Vrilissia",1820,2,2,23.848924799999963,38.0453831
"Istanbul, Gayrettepe",2061,1,1,29.00953890290225,41.062567698048134
"Berlin, Prenzlauer Berg",1790,1,1,13.4144614,52.5516337
"Istanbul, Gayrettepe",1856,1,1,29.00953890290225,41.062567698048134
"London, Aldgate",3518,1,1,-0.07351329999999999,51.5147293
"London, Bayswater",2879,0,1,-0.1809884,51.5116698
"Athens, Vasilissis Sofias Avenue",1240,2,1,23.75390749999997,37.9759375
"Athens, Agia Paraskevi",1480,3,2,23.8156025,38.0087205
"Lisbon, Lapa",2450,1,1,-9.1608888,38.70589919999999
"Lisbon, Baixa",2380,1,1,-9.1388485,38.7141408
"London, Bayswater",3309,1,1,-0.1931213,51.5148751
"Athens, Elliniko",2000,2,1,23.7454993,37.889124
"Athens, Acropolis",1350,2,1,23.7240975,37.96827789999999
"Athens, Marousi",1200,2,1,23.811415,38.0349458
"Athens, Vasilissis Sofias Avenue",1120,2,2,23.764457100000072,37.98557050000001
"Athens, Pangrati",990,2,1,23.75198109999999,37.9718738
"Athens, Kolonaki",910,2,1,23.751707,37.982016
"Athens, Papagou",1690,3,1,23.788147200000026,37.98461669999999
"Berlin, Friedrichshain",2250,1,1,13.4406259,52.5050299
"Copenhagen, Valby",3223,2,1,12.5031502,55.6538785
"Copenhagen, Østerbro",2584,1,1,12.5772024,55.7009297
"Athens, Lycabettus",1060,1,1,23.7415052,37.9848269
"Athens, Lycabettus",1200,2,1,23.7422951,37.9851552
"Athens, Politeia",4270,3,3,23.8249106,38.085528
"Athens, Politeia",4200,4,3,23.8320106,38.0862168
"Barcelona, Vila de Gràcia",1820,2,1,2.1592414,41.3994936
"Barcelona, Antiga Esquerra de l'Eixample",2540,3,2,2.1505687,41.3869029
"Basel, Gundeldingen",2730,2,1,7.590839399999999,47.5440919
"Paris, Auteuil",3860,3,1,2.2563858,48.8436324
"Paris, Passy",5170,2,2,2.285311,48.856291
"Paris, Passy",2490,0,1,2.2795378,48.85663030000001
"Paris, Auteuil",1870,0,1,2.263697800000001,48.84411720000001
"Paris, Auteuil",4240,3,2,2.2579568,48.8394608
"Paris, Trocadéro",2600,1,2,2.2805785,48.8583021
"Paris, Ternes",7020,4,3,2.30098,48.8877773
"Athens, Historic Center",1360,3,1,23.7387143,37.98493810000001
"Paris, Villiers",3400,2,1,2.3164096,48.8823697
"Paris, Villiers",1890,1,1,2.3173794,48.88209569999999
"Paris, Ternes",4600,3,1,2.2855428,48.88331849999999
"Paris, Ternes",5330,2,2,2.2960592,48.8846832
"Paris, Ternes",5100,3,2,2.2909674,48.88125669999999
"Barcelona, Antiga Esquerra de l'Eixample",2130,3,1,2.1513554,41.3936365
"Barcelona, Les Tres Torres",4220,4,2,2.1374567,41.39475419999999
"Berlin, Charlottenburg",1630,0,1,13.329638,52.50057469999999
"Berlin, Prenzlauer Berg",3080,2,1,13.4145912,52.551494
"Athens, Chalandri",1240,2,1,23.8082809,38.0306111
"Athens, Chalandri",900,1,1,23.7930102,38.010204
"Athens, Nea Smyrni",1240,2,1,23.7116699,37.94613349999999
"Athens, Vrilissia",1760,3,1,23.8435099,38.0447541
"Barcelona, La Dreta de l'Eixample",2500,2,1,2.1690864,41.3880627
"Barcelona, La Bordeta",1950,3,2,2.1405246,41.3677529
"Barcelona, La Bordeta",2200,3,2,2.123353,41.3763925
"Barcelona, Galvany",1650,2,1,2.1450379,41.3954503
"Barcelona, Les Tres Torres",2740,3,2,2.1388744,41.3929293
"Barcelona, Galvany",2300,2,1,2.1319103,41.3931707
"Athens, Politeia",2160,3,2,23.829006899999968,38.0931509
"Athens, Politeia",2250,3,2,23.82661859999996,38.0916542
"Athens, Pangrati",1260,2,1,23.745051,37.9653592
"Istanbul, Nisbetiye",1172,2,1,29.0241746,41.0750632
"Istanbul, Fulya",1157,1,1,28.998890000000074,41.0566493
"Athens, Agia Paraskevi",1450,2,1,23.829914400000007,38.00583839999999
"Athens, Agia Paraskevi",1710,2,1,23.826235600000018,38.0062005
"Athens, Melissia",1690,3,1,23.8347576,38.0562346
"Athens, Voula",1060,1,1,23.7712098,37.838888
"Athens, Glyfada",1450,2,1,23.7603758,37.8772864
"Athens, Glyfada",1960,3,1,23.7618261,37.8742303
"Athens, Chalandri",1450,2,1,23.80010960000004,38.02931290000001
"Athens, Agia Paraskevi",1350,2,1,23.8264367,38.0080922
"Athens, Voula",1560,2,1,23.761721,37.847248
"Athens, Ampelokipoi",1400,3,1,23.7600593,37.9904165
"Berlin, Prenzlauer Berg",2100,1,1,13.4144614,52.5516337
"Istanbul, Kagithane",759,1,1,28.97937319999999,41.08126499999999
"Istanbul, Bomonti",933,1,1,28.982506,41.0562741
"Istanbul, Maden",976,1,1,29.05309699999998,41.194261
"Istanbul, Beyoglu",955,1,1,28.9736204,41.0388732
"Istanbul, Ortaköy",4449,3,2,29.020219699999984,41.0542476
"Istanbul, Levent - Gültepe",976,1,1,28.9968252182006,41.0786394544723
"Istanbul, Etiler - Akatlar",1703,3,2,29.03594270000001,41.0873832
"Istanbul, Göktürk",1779,3,2,28.8814346,41.1791902
"Athens, Marousi",1340,3,2,23.8135647,38.0482155
"Athens, Kifisia",1290,3,1,23.8022005,38.0677969
"Athens, Papagou",1560,3,1,23.7903392,37.9796109
"Barcelona, La Dreta de l'Eixample",2080,2,1,2.1816214,41.4059173
"Berlin, Charlottenburg",3110,2,2,13.2941384,52.50140570000001
"Berlin, Kreuzberg",1430,0,1,13.4287261,52.4995609
"Berlin, Kreuzberg",1670,1,1,13.3745917,52.4858599
"Berlin, Charlottenburg",3730,3,2,13.2989055,52.50264
"Athens, Pangrati",1130,2,1,23.7524832,37.9696107
"Istanbul, Nisbetiye",1172,2,1,29.0241746,41.0750632
"Madrid, El Viso",1950,1,1,-3.6792399,40.4403932
"Madrid, El Viso",1890,1,1,-3.6798439,40.4429786
"Madrid, El Viso",2430,2,1,-3.6792399,40.4403932
"Madrid, El Viso",1960,1,1,-3.6792399,40.4403932
"Madrid, El Viso",2710,2,1,-3.6792399,40.4403932
"Madrid, Trafalgar",1630,1,1,-3.7031621,40.4351278
"Athens, Glyfada",1870,3,1,23.755411,37.870663
"Madrid, Trafalgar",2730,3,2,-3.6987482,40.4336427
"Madrid, Trafalgar",1680,1,1,-3.7031621,40.4351278
"Madrid, Ríos Rosas",2580,2,2,-3.700030700000001,40.4386437
"Madrid, Trafalgar",1900,1,1,-3.7031621,40.4351278
"Madrid, Ríos Rosas",2910,2,2,-3.7007794,40.4387338
"Madrid, Gaztambide",2360,2,1,-3.7105515,40.4360566
"Madrid, Vallehermoso",2700,2,2,-3.715543,40.44090190000001
"Madrid, Almagro",2060,1,1,-3.693492000000001,40.43671550000001
"Madrid, Ciudad Jardín",1970,2,1,-3.6763012,40.4447791
"Madrid, Argüelles",2020,1,1,-3.714145499999999,40.42730359999999
"Paris, Olympiades",3200,2,1,2.371094100000001,48.82970780000001
"Paris, Denfert-Rochereau",3900,2,2,2.3242104,48.82692460000001
"Paris, Denfert-Rochereau",3500,1,1,2.340254,48.8390304
"Paris, Montparnasse",2400,1,1,2.3208829,48.8431153
"Paris, Commerce",2400,1,1,2.2943259,48.8454534
"Paris, Montparnasse",4090,2,2,2.3221108,48.8440794
"Paris, Montparnasse",2500,1,1,2.3253322,48.8436145
"Paris, La Motte-Picquet Grenelle",2690,1,1,2.294789299999999,48.8503101
"Paris, La Motte-Picquet Grenelle",2780,1,2,2.2975942,48.8494411
"Paris, La Motte-Picquet Grenelle",3090,1,1,2.297874,48.8470345
"Paris, La Motte-Picquet Grenelle",3400,2,1,2.3099628,48.8459853
"Paris, Auteuil",2870,1,1,2.2578723,48.8436022
"Berlin, Mitte",1400,0,1,13.3747942,52.5368337
"Berlin, Mitte",2170,1,1,13.3324929,52.5251173
"Barcelona, El Camp d'en Grassot i Gràcia Nova",2700,2,2,2.1516045,41.3997478
"Istanbul, Kosuyolu",2818,3,2,29.041891,41.014667
"Istanbul, Kosuyolu",2951,3,1,29.041891,41.014667
"Istanbul, Kozyatagi",1736,2,1,29.095853,40.9622629
"London, Canary Wharf",5306,2,2,-0.0192002,51.4995533
"Istanbul, Kozyatagi",1323,2,2,29.09863,40.972516
"Lisbon, Santo António",3640,3,2,-9.1485028,38.7197586
"Lisbon, Chiado",3410,2,2,-9.1430446,38.7111496
"London, Camden Town",4911,3,2,-0.1437321,51.5388452
"London, Canary Wharf",5840,3,2,-0.0192002,51.4995533
"London, Old Street",3971,2,2,-0.08949499999999999,51.528294
"Basel, Vorstädte",1957,1,1,7.5880892,47.5519754
"Lisbon, Chiado",5460,3,2,-9.141692599999999,38.70804260000001
"London, Highgate",3948,2,2,-0.1420577,51.573621
"Barcelona, El Camp d'en Grassot i Gràcia Nova",3650,3,2,2.1516045,41.3997478
"Barcelona, El Putxet i el Farró",1750,1,1,2.1463304,41.4090736
"Barcelona, El Camp d'en Grassot i Gràcia Nova",1830,1,1,2.1660766,41.4092421
"London, Canary Wharf",3170,1,1,-0.0185601,51.5010795
"Lisbon, Santa Catarina",3410,2,2,-9.1493589,38.7109696
"Barcelona, El Camp d'en Grassot i Gràcia Nova",2730,2,2,2.1516045,41.3997478
"Barcelona, El Camp d'en Grassot i Gràcia Nova",2730,2,2,2.1516045,41.3997478
"Athens, Acropolis",820,1,1,23.7261931,37.9671727
"Athens, Marousi",1130,2,1,23.8051739,38.0343103
"Athens, Stavros Niarchos Park Area",2360,3,2,23.6876244,37.942657
"Barcelona, El Born",3410,3,3,2.1843208,41.3849955
"Basel, Kleinhüningen",3101,3,1,7.5948546,47.5803956
"Berlin, Neukölln",1550,1,1,13.4254541,52.4753418
"Copenhagen, Amager",2200,1,1,12.6238577,55.66315549999999
"Lisbon, Alcantara",2660,2,2,-9.1756809,38.7054159
"Lisbon, Arroios",1980,2,1,-9.1457564,38.7254421
"Lisbon, Alvalade",3170,3,2,-9.1477989,38.7513748
"Lisbon, Lapa",2450,2,1,-9.160383099999999,38.7085924
"Lisbon, Campo Pequeno",2160,1,1,-9.1403451,38.7437626
"Lisbon, Arroios",2190,2,1,-9.137019700000002,38.7277227
"Lisbon, Campo de Ourique",2920,2,2,-9.1634386,38.7175404
"Lisbon, Principe Real",2840,2,1,-9.152853200000001,38.7180109
"Lisbon, Alvalade",2880,3,2,-9.1408721,38.7549016
"Lisbon, Alcantara",2760,2,2,-9.1750464,38.7033716
"Lisbon, Alcantara",3280,3,2,-9.1823223,38.7039439
"Lisbon, Avenidas Novas",3070,2,2,-9.146583999999999,38.73500749999999
"Athens, Koukaki",1080,1,1,23.721764500000063,37.96214459999999
"Istanbul, Yildiz - Çiragan",1844,2,1,29.011600999999928,41.0453742
"Istanbul, Yenitepe",1584,2,1,29.13967049999999,40.9898202
"Copenhagen, Frederiksberg",3255,2,1,12.5346184,55.6695358
"Lisbon, Santos",3210,2,1,-9.1492611,38.7084039
"Lisbon, Lapa",2770,2,2,-9.160383099999999,38.7085924
"Lisbon, Avenidas Novas",1960,1,1,-9.1443651,38.73642
"Athens, Agia Paraskevi",1440,3,1,23.8254271,38.0104767
"Athens, Koukaki",1140,1,1,23.7244886,37.9646485
"Athens, Politeia",2170,3,2,23.83637920000001,38.0783077
"Barcelona, El Born",2270,1,1,2.1846702,41.3853632
"Berlin, Friedrichshain",1910,1,1,13.4579619,52.5107175
"Basel, Altstadt Grossbasel",2781,1,1,7.588406099999999,47.55640580000001
"Copenhagen, Ørestaden",2377,1,1,12.5757553,55.6367208
"Madrid, Arapiles",1770,1,1,-3.7091021,40.4320818
"Athens, Psychiko",1730,3,1,23.78134810000006,38.0139781
"Athens, Acropolis",920,1,1,23.7267551,37.9660726
"Istanbul, Kartal",1618,3,2,29.1999433,40.8974925
"Paris, Invalides",5340,2,2,2.31755,48.8572076
"Paris, Champ de Mars",4200,2,2,2.2993088,48.859723
"Paris, Monceau",7540,3,2,2.3163334,48.8802986
"Paris, Champs-Élysées",2670,1,1,2.3021792,48.8727295
"Paris, Batignolles",2300,1,1,2.3165152,48.8838028
"Paris, Le Marais - Saint-Paul",3870,2,1,2.3497473,48.85863499999999
"Paris, Madeleine",2700,1,1,2.3257899,48.8681771
"Paris, Notre-Dame-de-Lorette",4300,2,1,2.3355339,48.8763513
"Paris, Passy",3000,1,1,2.2766441,48.856736
"Paris, Pigalle",5800,3,1,2.3288025,48.8820535
"Paris, Saint-Germain-des-Prés",2200,1,1,2.3376699,48.8542753
"Paris, Saint-Germain-des-Prés",2700,1,1,2.32833,48.8434234
"Paris, Saint-Germain-des-Prés",2180,0,1,2.3351547,48.8549503
"Paris, Saint-Germain-des-Prés",2200,0,1,2.3289067,48.8533624
"Paris, Saint-Germain-des-Prés",2700,1,1,2.3357793,48.8412429
"Paris, Saint-Germain-des-Prés",4100,2,1,2.3331231,48.85287659999999
"Paris, Saint-Germain-des-Prés",2800,1,1,2.3255114,48.8497151
"Paris, Odéon",2700,1,1,2.3401285,48.8554795
"Paris, Odéon",4000,1,1,2.3370675,48.8545238
"Paris, Saint-Germain-des-Prés",3870,2,1,2.3338521,48.8522176
"Paris, Saint-Germain-des-Prés",5690,3,1,2.3297578,48.8496209
"Paris, Saint-Germain-des-Prés",2700,1,1,2.3351389,48.8500203
"Paris, Invalides",6150,3,1,2.324305,48.8598463
"Paris, École Militaire",3100,1,1,2.3015368,48.86073760000001
"Paris, Invalides",2720,1,1,2.3185467,48.8485684
"Paris, Invalides",5400,2,2,2.319249,48.85283949999999
"Paris, Invalides",2500,1,1,2.3091008,48.8597848
"Paris, Invalides",3200,1,1,2.3200052,48.8552813
"Paris, École Militaire",2100,1,1,2.307432,48.8550319
"Paris, Invalides",2200,0,1,2.3028291,48.8572079
"Vienna, 3rd district - Landstraße",3640,3,2,16.3855054,48.18923479999999
"Vienna, 2nd district - Leopoldstadt",3820,3,2,16.4305972,48.2065631
"Istanbul, Kurtulus",1321,3,1,28.9800156,41.0475345
"Athens, Ampelokipoi",1020,2,1,23.769625200000064,37.99296090000001
"Athens, Kolonaki",1830,2,1,23.7456088,37.9799966
"Athens, Marousi",1200,2,1,23.811415,38.0349458
"Athens, Vasilissis Sofias Avenue",1120,2,2,23.764457100000072,37.98557050000001
"Athens, Elliniko",2000,2,1,23.7454993,37.889124
"Athens, Acropolis",1350,2,1,23.7240975,37.96827789999999
"Berlin, Mitte",1400,0,1,13.3747942,52.5368337
"Berlin, Mitte",2170,1,1,13.3324929,52.5251173
"Barcelona, El Camp d'en Grassot i Gràcia Nova",2700,2,2,2.1516045,41.3997478
"Istanbul, Kosuyolu",2818,3,2,29.041891,41.014667
"Istanbul, Kosuyolu",2951,3,1,29.041891,41.014667
"Istanbul, Kozyatagi",1736,2,1,29.095853,40.9622629
"London, Canary Wharf",5306,2,2,-0.0192002,51.4995533
"Istanbul, Kozyatagi",1323,2,2,29.09863,40.972516
"Lisbon, Santo António",3640,3,2,-9.1485028,38.7197586
"London, Canary Wharf",5840,3,2,-0.0192002,51.4995533
"Lisbon, Chiado",3410,2,2,-9.1430446,38.7111496
"London, Camden Town",4911,3,2,-0.1437321,51.5388452
"London, Old Street",3971,2,2,-0.08949499999999999,51.528294
"Basel, Vorstädte",1957,1,1,7.5880892,47.5519754
"Lisbon, Chiado",5460,3,2,-9.141692599999999,38.70804260000001
"London, Highgate",3948,2,2,-0.1420577,51.573621
"Barcelona, El Camp d'en Grassot i Gràcia Nova",3650,3,2,2.1516045,41.3997478
"Barcelona, El Putxet i el Farró",1750,1,1,2.1463304,41.4090736
"Barcelona, El Camp d'en Grassot i Gràcia Nova",1830,1,1,2.1660766,41.4092421
"London, Canary Wharf",3170,1,1,-0.0185601,51.5010795
"Lisbon, Santa Catarina",3410,2,2,-9.1493589,38.7109696
"London, Bermondsey",4006,1,1,-0.07820110000000001,51.4948048
"London, Bromley by Bow",2798,0,1,-0.0098131,51.5211613
"Lisbon, Lapa",4110,3,2,-9.160383099999999,38.7085924
"Lisbon, Parque das Naçoes",2810,2,2,-9.0976502,38.7739933
"London, Canary Wharf",7315,3,2,-0.0192002,51.4995533
"Lisbon, Parque das Naçoes",1700,1,1,-9.1087559,38.7681617
"Lisbon, Parque das Naçoes",1810,1,1,-9.1087559,38.7681617
"Lisbon, Marques de Pombal",1970,1,1,-9.1475981,38.7279556
"Lisbon, Amoreiras",2200,1,1,-9.154673299999999,38.7221684
"Lisbon, Campo de Ourique",3090,3,2,-9.163340500000002,38.7158285
"Lisbon, Baixa",1930,1,1,-9.1389464,38.71002
"Lisbon, Campolide",3140,3,2,-9.161363,38.7262072
"London, Bromley by Bow",2868,1,1,-0.0098131,51.5211613
"Istanbul, Zekeriyaköy - Uskumruköy",4579,4,2,29.0308295,41.1944753
"Lisbon, Avenidas Novas",3090,2,2,-9.1479473,38.73344489999999
"Lisbon, Principe Real",2970,2,1,-9.152995399999998,38.71784239999999
"Lisbon, Saldanha",2220,1,1,-9.1438009,38.7280144
"Lisbon, Campo de Ourique",2880,3,2,-9.1655374,38.7153117
"Lisbon, Alcantara",2930,2,2,-9.174828,38.7051445
"Lisbon, Santo António",2370,2,1,-9.1449331,38.7166576
"Lisbon, Santo António",2780,2,2,-9.1440352,38.72512100000001
"Lisbon, Campolide",3530,2,2,-9.1638454,38.7378643
"Lisbon, Arroios",2740,2,2,-9.130482299999999,38.7363348
"Lisbon, Campolide",1890,1,1,-9.1622278,38.7384841
"London, Bethnal Green",3843,2,1,-0.0672252,51.5236423
"Lisbon, Lapa",2770,3,2,-9.1591836,38.7120512
"Lisbon, Avenidas Novas",2640,2,2,-9.144591799999999,38.7383745
"Lisbon, Campolide",1810,1,1,-9.161068299999998,38.7306468
"Basel, Gundeldingen",2266,2,1,7.5987987,47.5403955
"Berlin, Mitte",1400,0,1,13.3747942,52.5368337
"Athens, Nea Smyrni",1240,2,1,23.7116699,37.94613349999999
"Athens, Vrilissia",1760,3,1,23.8435099,38.0447541
"Barcelona, La Dreta de l'Eixample",2500,2,1,2.1690864,41.3880627
"Barcelona, La Bordeta",2200,3,2,2.123353,41.3763925
"Basel, Gundeldingen",2369,2,1,7.5878146,47.5452535
"Berlin, Friedrichshain",1400,0,1,13.4583393,52.51099749999999
"Athens, Kifisia",1080,2,1,23.8140643,38.068879
"Athens, Kolonaki",1110,1,1,23.74259630000006,37.9838825
"Lisbon, Estrela",2970,2,1,-9.1566638,38.7153382
"Athens, Politeia",2300,3,2,23.826980699999996,38.08781170000001
"Athens, Ampelokipoi",1020,2,1,23.769625200000064,37.99296090000001
"Athens, Kolonaki",1830,2,1,23.7456088,37.9799966
"Istanbul, Kartal",1618,3,2,29.1999433,40.8974925
"Istanbul, Kartal",1000,1,1,29.1999433,40.8974925
"Istanbul, Kartal",2061,3,2,29.1655267,40.9008146
"Istanbul, Erenköy",2430,3,2,29.07180500000004,40.9669
"Istanbul, Esentepe",4796,3,2,29.012386982803378,41.072524661428396
"Athens, Stavros Niarchos Park Area",1400,3,1,23.6889848,37.9423232
"Barcelona, El Camp d'en Grassot i Gràcia Nova",2760,2,2,2.1516045,41.3997478
"Basel, Rosental",1999,1,1,7.6006741,47.5684066
"Berlin, Neukölln",1970,2,1,13.4286089,52.4796714
"Athens, Mets - Kallimarmaro",1340,2,1,23.73355879999997,37.9666401
"Athens, Melissia",1490,3,2,23.8427415,38.0532105
"Athens, Vrilissia",1820,2,2,23.848924799999963,38.0453831
"Athens, Vouliagmeni",1130,1,1,23.78019459999996,37.81896889999999
"Athens, Voula",1030,1,1,23.760969400000022,37.85338240000001
"Berlin, Schöneberg",2320,1,1,13.3698096,52.4992831
"Berlin, Schöneberg",2610,2,1,13.3698096,52.4992831
"Athens, Chalandri",1300,2,1,23.7989462,38.0140568
"Athens, Chalandri",1140,2,1,23.8264735,38.0245674
"Paris, Auteuil",3860,3,1,2.2563858,48.8436324
"Paris, Passy",5170,2,2,2.285311,48.856291
"Paris, Auteuil",4240,3,2,2.2579568,48.8394608
"Paris, Trocadéro",2600,1,2,2.2805785,48.8583021
"Paris, Ternes",7020,4,3,2.30098,48.8877773
"Paris, Villiers",3400,2,1,2.3164096,48.8823697
"Paris, Villiers",1890,1,1,2.3173794,48.88209569999999
"Paris, Ternes",4600,3,1,2.2855428,48.88331849999999
"Paris, Ternes",5330,2,2,2.2960592,48.8846832
"Paris, Auteuil",1870,0,1,2.263697800000001,48.84411720000001
"Athens, Historic Center",1360,3,1,23.7387143,37.98493810000001
"Paris, Ternes",5100,3,2,2.2909674,48.88125669999999
"Athens, Chalandri",1720,3,1,23.80208970000001,38.0227637
"Athens, Nea Smyrni",950,1,1,23.7080658,37.94198009999999
"Athens, Vrilissia",1460,2,1,23.8329891,38.0300333
"Athens, Ampelokipoi",1380,2,1,23.7643854,37.99377570000001
"Barcelona, Sagrada Familia",1850,1,1,2.1800265,41.4037667
"Barcelona, Sagrada Familia",1710,1,1,2.1800265,41.4037667
"Berlin, Friedrichshain",2890,2,1,13.4563407,52.5136897
"Berlin, Charlottenburg",3560,3,2,13.3254887,52.5232231
"Athens, Neo Psychiko",1860,3,1,23.7793228,38.0071544
"Athens, Cholargos",1180,2,1,23.7957803,38.0010759
"Athens, Neo Psychiko",1350,2,1,23.778628900000058,38.00018850000001
"Athens, Kolonaki",700,0,1,23.737041399999953,37.9827466
"Athens, Glyfada",790,0,1,23.758424600000012,37.86734879999999
"London, Charing cross",3924,1,1,-0.1238886,51.5082409
"London, Covent Garden",5306,2,1,-0.1261343,51.5135681
"London, Canary Wharf",5689,2,2,-0.0192002,51.4995533
"London, Charing cross",4331,2,1,-0.1238886,51.5082409
"London, Charing cross",6049,2,2,-0.123941,51.5084919
"Vienna, 20th district - Brigittenau",1220,1,1,16.3711351,48.2305864
"Vienna, 14th district - Penzing",1400,1,1,16.3100092,48.1984608
"Vienna, 14th district - Penzing",1320,1,1,16.3100092,48.1984608
"Vienna, 20th district - Brigittenau",1510,1,1,16.3885484,48.2390656
"Vienna, 17th district - Hernals",1360,1,1,16.332128,48.2214884
"Vienna, 19th district - Döbling",1960,2,1,16.3580154,48.2498649
"Vienna, 19th district - Döbling",1370,1,1,16.3493335,48.2347639
"Vienna, 1st district – Innere Stadt",3320,2,1,16.3769038,48.209224
"Vienna, 1st district – Innere Stadt",1630,1,1,16.3672249,48.2125651
"Vienna, 1st district – Innere Stadt",3220,3,1,16.381296,48.21092650000001
"Vienna, 1st district – Innere Stadt",2510,2,2,16.3748378,48.2073777
"Vienna, 1st district – Innere Stadt",2860,2,1,16.3748378,48.2073777
"Vienna, 1st district – Innere Stadt",1470,0,1,16.3712681,48.2126708
"Vienna, 1st district – Innere Stadt",2640,2,1,16.3726143,48.2116355
"Vienna, 1st district – Innere Stadt",2120,1,1,16.3798319,48.2111635
"Vienna, 1st district – Innere Stadt",1890,1,1,16.3729641,48.21388349999999
"Vienna, 1st district – Innere Stadt",4200,2,1,16.3580979,48.2054149
"Istanbul, Maslak",1562,1,1,29.01473,41.1118
"Vienna, 17th district - Hernals",1160,1,1,16.3298943,48.22020329999999
"Vienna, 1st district – Innere Stadt",3000,2,1,16.3707476,48.21242220000001
"Vienna, 1st district – Innere Stadt",3530,2,1,16.3742845,48.2132935
"Vienna, 1st district – Innere Stadt",4650,2,2,16.3712681,48.2126708
"Vienna, 1st district – Innere Stadt",1870,1,1,16.375402,48.2057642
"Vienna, 20th district - Brigittenau",1490,2,1,16.3843564,48.24095459999999
"Vienna, 20th district - Brigittenau",1860,2,1,16.3887103,48.2389805
"Vienna, 20th district - Brigittenau",2050,2,1,16.3887103,48.2389805
"Vienna, 20th district - Brigittenau",1120,1,1,16.3711351,48.2305864
"Vienna, 20th district - Brigittenau",1270,1,1,16.387795,48.2398872
"Vienna, 20th district - Brigittenau",1520,1,1,16.3720818,48.228691
"Vienna, 20th district - Brigittenau",2290,2,1,16.3879159,48.238916
"Istanbul, Ayazaga",1280,1,1,28.9607493,41.1021459
"Istanbul, Emirgan",2561,3,2,29.044177999999988,41.108204
"Istanbul, Fenerbahçe",1692,2,1,29.0433183,40.9734183
"Istanbul, Göztepe",1020,2,1,29.06571289999999,40.9715527
"Istanbul, Levazim",2669,4,2,29.020659199999955,41.0673321
"Istanbul, Maslak",3689,2,2,29.02302910000003,41.1112217
"Istanbul, Sahrayicedid",1323,1,1,29.05552130000001,40.9753579
"Barcelona, El Born",2420,1,1,2.1843208,41.3849955
"Barcelona, La Dreta de l'Eixample",2360,1,1,2.1658305,41.3871755
"Istanbul, Tarabya",4880,3,3,29.0459836,41.1391546
"Lisbon, Arroios",2130,2,1,-9.1379848,38.7274663
"Athens, Kolonaki",680,0,1,23.744039199999975,37.9797903
"Athens, Piraeus",1020,2,1,23.632601199999954,37.9494798
"Basel, St. Johann",2266,2,1,7.5680419,47.5684858
"Athens, Politeia",2250,3,2,23.82661859999996,38.0916542
"Athens, Acropolis",1080,2,1,23.726837299999943,37.96594810000001
"Athens, Marousi",1050,2,1,23.8180616,38.047418
"Athens, Stavros Niarchos Park Area",1760,2,1,23.69007,37.941268
"Barcelona, El Gòtic",2630,2,2,2.177905299999999,41.3785835
"Basel, Matthäus",2163,2,1,7.5973878,47.5696287
"Berlin, Neukölln",1770,0,1,13.446744,52.47928839999999
"Athens, Agia Paraskevi",1710,2,1,23.826235600000018,38.0062005
"Athens, Melissia",1690,3,1,23.8347576,38.0562346
"Athens, Kolonaki",700,0,1,23.737041399999953,37.9827466
"Athens, Glyfada",790,0,1,23.758424600000012,37.86734879999999
"Athens, Elliniko",1980,3,2,23.745019599999978,37.8908136
"Athens, Elliniko",2300,2,2,23.7454993,37.889124
"Athens, Elliniko",1590,3,1,23.7536299,37.8900436
"Athens, Elliniko",2120,2,2,23.7454993,37.889124
"Paris, Quartier Latin",2690,1,1,2.346665299999999,48.8525135
"Athens, Acropolis",1080,2,1,23.726837299999943,37.96594810000001
"Athens, Marousi",1050,2,1,23.8180616,38.047418
"Athens, Stavros Niarchos Park Area",1760,2,1,23.69007,37.941268
"Barcelona, El Gòtic",2630,2,2,2.177905299999999,41.3785835
"Basel, Matthäus",2163,2,1,7.5973878,47.5696287
"Berlin, Neukölln",1770,0,1,13.446744,52.47928839999999
"Athens, Agia Paraskevi",1230,1,1,23.8349076,38.0115287
"Athens, Melissia",2020,3,1,23.83210639999993,38.04816299999999
"Athens, Vasilissis Sofias Avenue",1320,3,1,23.758284,37.9822266
"Athens, Agia Paraskevi",1760,3,2,23.81246,38.000574
"Barcelona, El Camp d'en Grassot i Gràcia Nova",2620,2,2,2.1516045,41.3997478
"Barcelona, El Camp d'en Grassot i Gràcia Nova",1820,1,1,2.1648497,41.40331219999999
"Athens, Agia Paraskevi",1400,2,2,23.8143083,38.0048758
"Athens, Alimos",1470,2,1,23.7194464,37.915405
"Athens, Alimos",920,1,1,23.712553299999968,37.9148457
"Athens, Ampelokipoi",1290,2,2,23.7611356,37.9932323
"Athens, Alimos",1350,2,1,23.7119661,37.9156251
"Athens, Mets - Kallimarmaro",1600,3,1,23.73355879999997,37.9666401
"Athens, Voula",1060,1,1,23.762726499999985,37.8434191
"Athens, Neo Psychiko",1670,2,2,23.7823927,38.0082659
"Athens, Neo Psychiko",1820,2,2,23.787360700000022,38.00241760000001
"Athens, Neo Psychiko",2250,3,2,23.7779733,38.0054932
"Athens, Chalandri",1020,1,1,23.805504499999984,38.0287145
"Athens, Nea Smyrni",1400,2,2,23.7104773,37.9472466
"Athens, Vrilissia",1890,4,1,23.828798600000027,38.03042790000001
"Barcelona, Nova Esquerra de l'Eixample",2510,3,2,2.1567379,41.3790097
"Berlin, Neukölln",1380,1,1,13.4242472,52.47709030000001
"Athens, Cholargos",1120,1,1,23.79801519999999,37.99904190000001
"Athens, Lycabettus",1080,1,1,23.7456275,37.9869621
"Istanbul, Ulus",3016,3,2,29.0244891,41.0613016
"Zurich, District 9 Altstetten",2060,0,1,8.4739635,47.3907199
"Istanbul, Esentepe",3140,2,2,29.012386982803378,41.072524661428396
"Istanbul, Etiler - Akatlar",1410,3,1,29.03829460000001,41.083989
"London, Stratford",3495,1,1,-0.0087438,51.54488809999999
"Istanbul, Etiler - Akatlar",1714,2,1,29.03006909999999,41.07416449999999
"Istanbul, Etiler - Akatlar",2148,2,2,29.035944599999993,41.0834096
"London, Bayswater",4609,1,1,-0.1854656,51.5109837
"Lisbon, Lapa",2870,2,1,-9.167182200000001,38.7053085
"Lisbon, Avenidas Novas",3300,2,2,-9.1479473,38.73344489999999
"Lisbon, Principe Real",3010,2,1,-9.152995399999998,38.71784239999999
"London, Camden Town",4377,2,1,-0.1384206,51.54147099999999
"Lisbon, Chiado",3140,2,2,-9.143220399999997,38.7124197
"London, Stockwell",3588,2,2,-0.1175997,51.4757425
"London, Camden Town",5004,2,2,-0.1433954,51.5382191
"Istanbul, Fulya",2495,1,1,28.998253400000067,41.0655781
"Istanbul, Fulya",1540,1,1,28.999655200000007,41.0535865
"Athens, Vasilissis Sofias Avenue",1360,2,1,23.754053,37.978688
"Athens, Vasilissis Sofias Avenue",1480,2,1,23.7563162,37.977237
"Istanbul, Fulya",1627,1,1,28.998890000000074,41.0566493
"Athens, Vasilissis Sofias Avenue",1290,2,1,23.7568841,37.981102
"Istanbul, Gayrettepe",2582,4,2,29.0055752,41.0662773
"Istanbul, Fulya",1888,1,1,29.000427400000035,41.0576025
"Istanbul, Fulya",1866,3,2,29.000528,41.064642
"Istanbul, Fulya",2821,2,1,28.99886729999999,41.0546477
"Istanbul, Fulya",2691,1,1,28.998253400000067,41.0655781
"Istanbul, Gayrettepe",1823,1,1,29.00953890290225,41.062567698048134
"Athens, Melissia",1500,3,2,23.8487021,38.062925
"Istanbul, Gayrettepe",1519,3,1,29.0001559,41.0630284
"Istanbul, Gayrettepe",2626,2,2,29.00953890290225,41.062567698048134
"London, Bayswater",5480,2,2,-0.1776485,51.51345449999999
"London, Fitzrovia",4795,2,2,-0.1333819,51.5193586
"London, Fitzrovia",5178,1,1,-0.1404701,51.523443
"London, Fitzrovia",4923,2,1,-0.1333819,51.5193586
"London, Fulham",3297,1,1,-0.2128003,51.4816217
"London, Fulham",3913,1,1,-0.2128003,51.4816217
"London, Fulham",3913,1,1,-0.2021312,51.48549999999999
"London, Fulham",3901,1,1,-0.2128003,51.4816217
"Athens, Glyfada",1450,2,1,23.7603758,37.8772864
"Athens, Glyfada",1960,3,1,23.7618261,37.8742303
"Athens, Neo Psychiko",1600,2,1,23.7817579,38.00835430000001
"Athens, Politeia",2500,3,2,23.832550999999967,38.0811423
"Athens, Koukaki",1580,2,1,23.7179551,37.9641004
"Athens, Vasilissis Sofias Avenue",1340,2,1,23.7510369,37.9777508
"Basel, Iselin",1947,1,1,7.570903500000001,47.56102010000001
"Madrid, Sol",1720,1,1,-3.6980716,40.4190885
"Berlin, Friedrichshain",2040,2,1,13.4461129,52.5211583
"Copenhagen, Østerbro",3451,2,1,12.5996547,55.6956042
"Istanbul, Kartal",1618,3,2,29.1999433,40.8974925
"Istanbul, Kartal",1000,1,1,29.1999433,40.8974925
"Istanbul, Kartal",2061,3,2,29.1655267,40.9008146
"Istanbul, Erenköy",2430,3,2,29.07180500000004,40.9669
"Istanbul, Esentepe",4796,3,2,29.012386982803378,41.072524661428396
"Athens, Acropolis",1430,2,1,23.7247812,37.96655690000001
"Athens, Marousi",1160,2,1,23.8051739,38.0343103
"Athens, Nea Smyrni",1560,3,1,23.7118531,37.9405691
"Athens, Alimos",1390,2,1,23.708773800000017,37.9180726
"Athens, Mets - Kallimarmaro",920,1,1,23.7363646,37.9660889
"Athens, Voula",1620,2,1,23.761374599999954,37.8495261
"Athens, Voula",2180,3,2,23.759129499999972,37.8464614
"Athens, Cholargos",1490,3,1,23.8033221,38.0037282
"Istanbul, Atasehir",1649,1,1,29.12192170000003,40.9938665
"Istanbul, Atasehir",1497,1,1,29.12192170000003,40.9938665
"Istanbul, Atasehir",1225,0,1,29.12192170000003,40.9938665
"Istanbul, Zekeriyaköy - Uskumruköy",2192,2,2,29.0301132,41.1960403
"Istanbul, Atasehir",1360,0,1,29.12192170000003,40.9938665
"Istanbul, Zekeriyaköy - Uskumruköy",2951,2,2,29.0312711,41.195454
"Istanbul, Atasehir",1758,0,1,29.12192170000003,40.9938665
"Istanbul, Zekeriyaköy - Uskumruköy",2778,2,2,29.0230461,41.2024411
"Istanbul, Zekeriyaköy - Uskumruköy",2821,2,2,29.0230461,41.2024411
"Istanbul, Maslak",4058,4,2,29.008894800000007,41.1181722
"Istanbul, Atasehir",1323,0,1,29.12192170000003,40.9938665
"Lisbon, Santo António",1920,1,1,-9.1442965,38.7279166
"Istanbul, Atasehir",1506,1,1,29.12192170000003,40.9938665
"Lisbon, Avenidas Novas",2020,1,1,-9.151399099999999,38.73718519999999
"Lisbon, Lapa",2750,2,1,-9.167182200000001,38.7053085
"Lisbon, Saldanha",2080,1,1,-9.1438009,38.7280144
"Lisbon, Arroios",2890,2,1,-9.1423394,38.7275617
"Lisbon, Alcantara",1950,1,1,-9.1737728,38.70593890000001
"Lisbon, Alcantara",2630,2,2,-9.1756809,38.7054159
"Lisbon, Avenidas Novas",3280,3,2,-9.151503099999998,38.73557559999999
"Lisbon, Campo de Ourique",2740,2,2,-9.1634386,38.7175404
"Lisbon, Campolide",2740,2,1,-9.1631618,38.7284922
"Lisbon, Saldanha",2790,2,2,-9.141690599999999,38.73171289999999
"Lisbon, Avenidas Novas",2480,1,1,-9.142867599999999,38.7341548
"Lisbon, Estrela",2120,1,1,-9.1563482,38.7186214
"Lisbon, Alvalade",2420,2,1,-9.1387684,38.75728299999999
"Lisbon, Saldanha",3030,2,2,-9.1449379,38.7320408
"Lisbon, Estrela",3380,3,3,-9.1563482,38.7186214
"Lisbon, Saldanha",2450,1,2,-9.1438009,38.7280144
"Lisbon, Ajuda",2480,2,1,-9.197404099999998,38.70286359999999
"Berlin, Neukölln",1550,1,1,13.4254541,52.4753418
"Copenhagen, Amager",2200,1,1,12.6238577,55.66315549999999
"Berlin, Mitte",3810,3,2,13.3587992,52.50086779999999
"Barcelona, El Camp d'en Grassot i Gràcia Nova",2870,2,2,2.1516045,41.3997478
"Berlin, Prenzlauer Berg",2050,1,1,13.4144614,52.5516337
"Berlin, Prenzlauer Berg",2740,2,1,13.4144614,52.5516337
"Berlin, Prenzlauer Berg",1550,0,1,13.4139026,52.5329888
"Berlin, Mitte",2570,2,1,13.3676116,52.532535
"Berlin, Charlottenburg",4120,3,2,13.3258979,52.52325980000001
"Berlin, Charlottenburg",3740,3,1,13.3040875,52.5065561
"Berlin, Charlottenburg",4230,3,2,13.3247184,52.5238856
"Berlin, Prenzlauer Berg",2030,1,1,13.4144614,52.5516337
"Berlin, Charlottenburg",1390,0,1,13.30033,52.49765360000001
"Berlin, Charlottenburg",4100,3,2,13.3258979,52.52325980000001
"Berlin, Prenzlauer Berg",1950,1,1,13.4145912,52.551494
"Basel, St. Alban",2524,2,1,7.5954693,47.5498341
"Basel, Vorstädte",3194,2,1,7.582607799999999,47.5652435
"Basel, Vorstädte",3091,3,1,7.581997899999999,47.5578729
"Berlin, Charlottenburg",1460,0,1,13.30854,52.49972
"Berlin, Charlottenburg",3630,3,2,13.3247184,52.5238856
"Basel, Vorstädte",2720,2,1,7.601244899999999,47.5528516
"Berlin, Charlottenburg",2070,1,1,13.3412181,52.5045126
"Berlin, Charlottenburg",2890,2,1,13.3246158,52.5237884
"Berlin, Charlottenburg",3690,3,2,13.3254887,52.5232231
"Basel, Vorstädte",2163,1,1,7.588108800000001,47.5524889
"Basel, Vorstädte",3286,1,1,7.582607799999999,47.5652435
"Basel, Wettstein",1803,1,1,7.6011697,47.55902690000001
"Berlin, Charlottenburg",1480,0,1,13.30854,52.49972
"Basel, Vorstädte",3245,2,1,7.582607799999999,47.5652435
"Berlin, Charlottenburg",1590,2,1,13.2904715,52.4828284
"Paris, Quartier Latin",6810,3,2,2.3415316,48.8460052
"Paris, Quartier Latin",4300,2,1,2.3529876,48.8408653
"Paris, Quartier Latin",2800,1,1,2.3479696,48.8440024
"Paris, Quartier Latin",2400,0,1,2.3479834,48.8439038
"Paris, Quartier Latin",3300,0,1,2.344177,48.8454926
"Paris, Quartier Latin",2800,1,1,2.3471343,48.8486302
"Paris, Quartier Latin",3300,1,1,2.3516768,48.84684370000001
"Paris, Saint-Germain-des-Prés",2200,1,1,2.3313049,48.8514115
"Paris, Saint-Germain-des-Prés",2530,0,1,2.3357793,48.8412429
"Paris, Saint-Germain-des-Prés",2430,1,1,2.3390366,48.851673
"Paris, Saint-Germain-des-Prés",2170,0,1,2.3244581,48.84900870000001
"Paris, Saint-Germain-des-Prés",4090,1,1,2.340764999999999,48.85270199999999
"Paris, Invalides",5340,2,2,2.31755,48.8572076
"Paris, Champ de Mars",4200,2,2,2.2993088,48.859723
"Paris, Monceau",7540,3,2,2.3163334,48.8802986
"Paris, Champs-Élysées",2670,1,1,2.3021792,48.8727295
"Paris, Batignolles",2300,1,1,2.3165152,48.8838028
"Paris, Le Marais - Saint-Paul",3870,2,1,2.3497473,48.85863499999999
"Paris, Madeleine",2700,1,1,2.3257899,48.8681771
"Paris, Notre-Dame-de-Lorette",4300,2,1,2.3355339,48.8763513
"Paris, Passy",3000,1,1,2.2766441,48.856736
"Paris, Pigalle",5800,3,1,2.3288025,48.8820535
"Paris, Saint-Germain-des-Prés",2200,1,1,2.3376699,48.8542753
"Paris, Saint-Germain-des-Prés",2700,1,1,2.32833,48.8434234
"Paris, Saint-Germain-des-Prés",2180,0,1,2.3351547,48.8549503
"Paris, Saint-Germain-des-Prés",2200,0,1,2.3289067,48.8533624
"Paris, Saint-Germain-des-Prés",2700,1,1,2.3357793,48.8412429
"Paris, Saint-Germain-des-Prés",4100,2,1,2.3331231,48.85287659999999
"Paris, Saint-Germain-des-Prés",2800,1,1,2.3255114,48.8497151
"Paris, Odéon",2700,1,1,2.3401285,48.8554795
"London, Marylebone",4354,1,1,-0.1447502,51.5220916
"London, Mayfair",3680,0,1,-0.1545814,51.5126068
"London, Notting Hill",3321,1,1,-0.1987434,51.5084954
"London, Old Street",3924,1,1,-0.0979844,51.5257624
"London, Old Street",4818,2,2,-0.08949499999999999,51.528294
"London, Old Street",4900,1,1,-0.08832469999999999,51.5274187
"London, Old Street",4482,2,2,-0.087048,51.52495940000001
"Madrid, El Viso",1950,1,1,-3.6792399,40.4403932
"Athens, Voula",2010,2,1,23.770573499999955,37.8512861
"Athens, Alimos",1080,1,1,23.7157637,37.9094165
"Athens, Nea Erithrea",2240,4,3,23.8132156,38.0996271
"Athens, Voula",1070,1,1,23.7721346,37.843785
"Athens, Ampelokipoi",1290,3,1,23.76412670000002,37.98868420000001
"Athens, Alimos",1960,3,2,23.708773800000017,37.9180726
"Athens, Nea Erithrea",1700,2,2,23.8159454,38.09061499999999
"Athens, Ampelokipoi",990,2,1,23.7705575,37.9839297
"Athens, Voula",2370,2,1,23.7682215,37.8436408
"Athens, Kifisia",2080,3,1,23.8034218,38.08944419999999
"Copenhagen, Sluseholmen",2349,1,1,12.5479935,55.646518
"Basel, Altstadt Grossbasel",2349,1,1,7.589600799999998,47.5556339
"Barcelona, Sagrada Familia",1850,1,1,2.1800265,41.4037667
"Berlin, Friedrichshain",2360,1,1,13.4406259,52.5050299
"Athens, Agia Paraskevi",1290,2,1,23.8237552,38.0131131
"Athens, Koukaki",1890,3,1,23.724055,37.9630511
"Athens, Politeia",2030,2,2,23.82864380000001,38.076035
"Barcelona, El Born",2290,1,1,2.1846702,41.3853632
"Basel, St. Johann",2256,2,1,7.5680419,47.5684858
"Berlin, Kreuzberg",2350,2,1,13.4160581,52.5112434
"Copenhagen, Amager",3110,2,1,12.6281017,55.66562279999999
"Istanbul, Çakmak",1197,2,2,29.1254844,41.01912859999999
"Paris, Buttes-Chaumont",3000,1,1,2.3740212,48.87824850000001
"Paris, Buttes-Chaumont",2800,1,1,2.3740212,48.87824850000001
"Paris, Buttes-Chaumont",3200,2,1,2.3740212,48.87824850000001
"Paris, Buttes-Chaumont",3200,2,1,2.3740212,48.87824850000001
"Paris, Les Halles",2930,1,1,2.3466454,48.8648616
"Paris, Grands Boulevards",3170,1,1,2.3489425,48.8716731
"Paris, Les Halles",4920,3,3,2.3491642,48.8611509
"Paris, Sentier - Montorgueil",2340,1,1,2.3490633,48.8653985
"Paris, Les Halles",2000,1,1,2.3515396,48.8628045
"Paris, Sentier - Montorgueil",2300,1,1,2.3473726,48.86673099999999
"Paris, Sentier - Montorgueil",3900,2,1,2.344977199999999,48.8670875
"Paris, Les Halles",4200,1,1,2.3498405,48.8607792
"Paris, Sentier - Montorgueil",2900,1,1,2.3495734,48.8641732
"Paris, Grands Boulevards",4700,2,1,2.3348187,48.87287389999999
"Paris, Le Marais - République",3100,1,1,2.3594762,48.8648715
"Paris, Le Marais - République",2240,1,1,2.3769186,48.862525
"Paris, Le Marais - République",3100,2,1,2.3590962,48.86562889999999
"Paris, Le Marais - République",3000,1,1,2.3569503,48.86736149999999
"Paris, Le Marais - République",3600,2,1,2.3576281,48.8654181
"Paris, Le Marais - République",1700,0,1,2.3566426,48.8677998
"Paris, Le Marais - République",3000,2,1,2.372831,48.8664052
"Paris, Le Marais - République",2200,0,1,2.3631208,48.86342229999999
"Paris, Le Marais - République",2500,1,1,2.3698336,48.8613679
"Paris, Le Marais - République",3700,1,1,2.3544484,48.86568579999999
"Paris, Le Marais - République",2200,1,1,2.3613277,48.8658104
"Paris, Le Marais - République",3100,2,1,2.3594615,48.868181
"Paris, Le Marais - République",3950,1,1,2.3544484,48.86568579999999
"Paris, Le Marais - République",1800,1,1,2.372831,48.8664052
"Paris, Le Marais - République",3300,1,1,2.3658927,48.8612358
"Paris, Le Marais - République",6330,3,2,2.3611101,48.8626158
"Istanbul, Beyoglu",1493,1,1,28.9736204,41.0388732
"Istanbul, Çekmeköy",1010,1,1,29.2576158,41.0387383
"Istanbul, Fenerbahçe",1920,2,1,29.0532766,40.97177540000001
"Istanbul, Levent - Gültepe",1218,2,1,28.9983941,41.0762765
"Istanbul, Levent - Gültepe",1246,2,2,28.9980197,41.0788618
"Istanbul, Levent - Gültepe",1089,1,1,28.9983941,41.0762765
"Istanbul, Levent - Gültepe",1008,1,1,28.9983941,41.0762765
"Istanbul, Levent - Gültepe",1267,2,1,28.9983941,41.0762765
"Istanbul, Kagithane",1752,1,1,28.9826493,41.088117
"Istanbul, Küçükyali",2148,2,1,29.1177611,40.9474974
"Istanbul, Ayazaga",2278,2,1,28.98637400000007,41.11302999999999
"Istanbul, Göktürk",2647,4,2,28.892891,41.178244
"Athens, Acropolis",1380,2,1,23.7294827,37.9679534
"Athens, Marousi",1210,3,1,23.7991538,38.0566206
"Istanbul, Çekmeköy",1063,2,2,29.2576158,41.0387383
"Athens, Stavros Niarchos Park Area",1460,3,1,23.6925369,37.94764529999999
"Barcelona, El Born",2040,2,2,2.1816321,41.3823428
"Basel, Iselin",2575,2,1,7.570903500000001,47.56102010000001
"Berlin, Neukölln",1390,1,1,13.4242472,52.47709030000001
"Copenhagen, Carlsberg Byen",2269,1,1,12.5358033,55.6649338
"Istanbul, Atasehir",2886,2,2,29.12192170000003,40.9938665
"Istanbul, Piyalepasa",1996,2,2,28.9679371,41.04341110000001
"Istanbul, Göktürk",1150,1,1,28.894076,41.178098
"Istanbul, Göktürk",1053,1,1,28.886602,41.17916399999999
"Istanbul, Göktürk",1703,2,2,28.8901973,41.1820301
"Istanbul, Göktürk",1519,2,2,28.8901973,41.1820301
"Istanbul, Güzeltepe",976,1,1,28.9522277,41.08988
"Istanbul, Göktürk",2915,3,2,28.8806152,41.1865064
"Istanbul, Göktürk",1193,1,1,28.884716000000026,41.179984
"Istanbul, Göktürk",1215,1,1,28.886602,41.17916399999999
"Istanbul, Göktürk",1150,1,1,28.894076,41.178098
"Istanbul, Göktürk",1053,1,1,28.886602,41.17916399999999
"Istanbul, Göktürk",1729,2,2,28.893534300000056,41.1804314
"Istanbul, Göktürk",1128,1,1,28.89091000000001,41.1748819
"Istanbul, Göktürk",1410,1,1,28.884716000000026,41.179984
"Istanbul, Yenitepe",1128,1,1,29.0450969,40.9908627
"Istanbul, Küçükyali",2083,3,2,29.1177611,40.9474974
"Istanbul, Maslak",1502,1,1,29.01473,41.1118
"Istanbul, Maslak",1627,3,1,28.999838,41.1141689
"Istanbul, Maslak",2107,2,2,29.01473,41.1118
"Istanbul, Istinye",2553,2,2,29.0364864,41.1172431
"Istanbul, Maslak",2601,2,2,29.019964999999956,41.1121849
"Istanbul, Arnavutköy",1172,1,1,29.04224199999999,41.06711
"Istanbul, Ümraniye",1020,1,1,29.09044510000001,41.0325548
"Istanbul, Ümraniye",1671,2,1,29.11713020000002,41.03827920000001
"Istanbul, Ümraniye",1215,1,1,29.11713020000002,41.03827920000001
"Istanbul, Güzeltepe",976,1,1,28.9522277,41.08988
"Istanbul, Göktürk",2915,3,2,28.8806152,41.1865064
"Istanbul, Göktürk",1193,1,1,28.884716000000026,41.179984
"Istanbul, Göktürk",1215,1,1,28.886602,41.17916399999999
"Istanbul, Ümraniye",1996,3,2,29.11713020000002,41.03827920000001
"Istanbul, Ümraniye",1540,2,1,29.1169315,41.0028071
"Istanbul, Ümraniye",955,1,1,29.09044510000001,41.0325548
"Istanbul, Bebek",2626,2,1,29.043280500000037,41.0816596
"Istanbul, Bebek",3016,3,1,29.0447321,41.08038920000001
"Istanbul, Bebek",3081,3,1,29.043369600000005,41.0784155
"Istanbul, Bomonti",1627,2,1,28.9819594,41.0553331
"Istanbul, Bomonti",1020,1,1,28.9778196,41.0571827
"Istanbul, Göktürk",1703,2,2,28.8901973,41.1820301
"Istanbul, Göktürk",1519,2,2,28.8901973,41.1820301
"Paris, Odéon",4000,1,1,2.3370675,48.8545238
"Paris, Saint-Germain-des-Prés",3870,2,1,2.3338521,48.8522176
"Paris, Saint-Germain-des-Prés",5690,3,1,2.3297578,48.8496209
"Paris, Saint-Germain-des-Prés",2700,1,1,2.3351389,48.8500203
"Paris, Invalides",6150,3,1,2.324305,48.8598463
"Paris, École Militaire",3100,1,1,2.3015368,48.86073760000001
"Paris, Invalides",2720,1,1,2.3185467,48.8485684
"Paris, Invalides",5400,2,2,2.319249,48.85283949999999
"Paris, Invalides",2500,1,1,2.3091008,48.8597848
"Paris, Invalides",3200,1,1,2.3200052,48.8552813
"Paris, École Militaire",2100,1,1,2.307432,48.8550319
"Paris, Invalides",2200,0,1,2.3028291,48.8572079
"Paris, École Militaire",2880,1,1,2.3003626,48.8592615
"Paris, École Militaire",2900,1,1,2.3030785,48.8572076
"Paris, Invalides",2900,1,1,2.3098622,48.8588697
"Paris, Invalides",3860,1,1,2.3201587,48.85863379999999
"Paris, Champ de Mars",3400,2,1,2.2880186,48.8534379
"Paris, Champs-Élysées",3870,1,1,2.305005,48.86884449999999
"Paris, Champs-Élysées",3560,0,1,2.304344,48.87123199999999
"Paris, Arc de Triomphe",4090,1,1,2.2975282,48.87641730000001
"Paris, Champs-Élysées",2600,1,1,2.315575,48.8726883
"Paris, Arc de Triomphe",2970,1,1,2.2944823,48.87552759999999
"Paris, Arc de Triomphe",2900,1,1,2.291518399999999,48.87675400000001
"Paris, Champs-Élysées",2550,0,1,2.3013642,48.8694836
"Paris, Champs-Élysées",4280,2,1,2.3073766,48.8743791
"Paris, Champs-Élysées",4010,1,1,2.3108529,48.86969269999999
"Paris, Champs-Élysées",2910,1,1,2.3067472,48.873655
"Paris, Arc de Triomphe",4170,2,1,2.2741482,48.86630820000001
"Paris, Miromesnil",5700,3,2,2.3065442,48.8751257
"Paris, Monceau",3580,2,1,2.3031334,48.8778081
"Madrid, Sol",1720,1,1,-3.6980716,40.4190885
"Berlin, Friedrichshain",2040,2,1,13.4461129,52.5211583
"Copenhagen, Østerbro",3451,2,1,12.5996547,55.6956042
"Athens, Marousi",2250,4,2,23.8197497,38.0419183
"Athens, Stavros Niarchos Park Area",1190,2,1,23.6906463,37.9436959
"Barcelona, El Born",2040,2,2,2.1816321,41.3823428
"Athens, Agia Paraskevi",1230,1,1,23.8349076,38.0115287
"Athens, Melissia",2020,3,1,23.83210639999993,38.04816299999999
"Athens, Vasilissis Sofias Avenue",1320,3,1,23.758284,37.9822266
"Athens, Agia Paraskevi",1760,3,2,23.81246,38.000574
"Barcelona, El Camp d'en Grassot i Gràcia Nova",2620,2,2,2.1516045,41.3997478
"Barcelona, El Camp d'en Grassot i Gràcia Nova",1820,1,1,2.1648497,41.40331219999999
"Athens, Cholargos",1580,3,2,23.8052701,38.0041559
"Paris, Olympiades",3200,2,1,2.371094100000001,48.82970780000001
"Paris, Denfert-Rochereau",3900,2,2,2.3242104,48.82692460000001
"Paris, Denfert-Rochereau",3500,1,1,2.340254,48.8390304
"Paris, Montparnasse",2400,1,1,2.3208829,48.8431153
"Paris, Commerce",2400,1,1,2.2943259,48.8454534
"Paris, Montparnasse",4090,2,2,2.3221108,48.8440794
"Paris, Montparnasse",2500,1,1,2.3253322,48.8436145
"Paris, La Motte-Picquet Grenelle",2690,1,1,2.294789299999999,48.8503101
"Paris, La Motte-Picquet Grenelle",2780,1,2,2.2975942,48.8494411
"Paris, La Motte-Picquet Grenelle",3090,1,1,2.297874,48.8470345
"Paris, La Motte-Picquet Grenelle",3400,2,1,2.3099628,48.8459853
"Paris, Auteuil",2870,1,1,2.2578723,48.8436022
"Paris, Trocadéro",2400,1,1,2.2805267,48.8739001
"Paris, Auteuil",3890,3,1,2.2619185,48.8501877
"Paris, Auteuil",2600,1,1,2.2671923,48.8416268
"Paris, Trocadéro",3320,1,1,2.28805,48.85820580000001
"Paris, Trocadéro",3150,1,1,2.2810623,48.8590791
"Istanbul, Bomonti",933,1,1,28.982506,41.0562741
"Istanbul, Maden",976,1,1,29.05309699999998,41.194261
"Istanbul, Beyoglu",955,1,1,28.9736204,41.0388732
"Istanbul, Ortaköy",4449,3,2,29.020219699999984,41.0542476
"Istanbul, Levent - Gültepe",976,1,1,28.9968252182006,41.0786394544723
"Istanbul, Etiler - Akatlar",1703,3,2,29.03594270000001,41.0873832
"Istanbul, Göktürk",1779,3,2,28.8814346,41.1791902
"Athens, Marousi",1340,3,2,23.8135647,38.0482155
"Athens, Kifisia",1290,3,1,23.8022005,38.0677969
"Athens, Papagou",1560,3,1,23.7903392,37.9796109
"Barcelona, La Dreta de l'Eixample",2080,2,1,2.1816214,41.4059173
"Berlin, Charlottenburg",3110,2,2,13.2941384,52.50140570000001
"Berlin, Kreuzberg",1430,0,1,13.4287261,52.4995609
"Berlin, Kreuzberg",1670,1,1,13.3745917,52.4858599
"Berlin, Charlottenburg",3730,3,2,13.2989055,52.50264
"Basel, Vorstädte",3235,2,1,7.582607799999999,47.5652435
"Berlin, Friedrichshain",2540,2,1,13.4233231,52.50955640000001
"Istanbul, Emirgan",2278,3,2,29.043976799999996,41.107517
"Istanbul, Kagithane",694,1,1,28.9813154,41.0804903
"Istanbul, Fenerbahçe",2582,3,2,29.0490246,40.9719505
"Istanbul, Göztepe",3689,4,2,29.0571336,40.97632159999999
"Athens, Acropolis",990,1,1,23.72720000000004,37.96580429999999
"Athens, Lycabettus",1490,2,1,23.75012670000001,37.9864659
"Athens, Psychiko",1710,2,1,23.764707899999962,38.0059275
"Barcelona, La Vila Olímpica del Poblenou",2890,3,1,2.1875067,41.39465000000001
"Basel, Breite",2163,2,1,7.6123888,47.5551889
"Berlin, Mitte",1830,1,1,13.3283711,52.5292081
"Barcelona, El Born",2040,2,2,2.1816321,41.3823428
"Basel, Iselin",1690,0,1,7.570903500000001,47.56102010000001
"Athens, Cholargos",1580,3,2,23.8052701,38.0041559
"Istanbul, Yenitepe",803,1,1,29.0535614,40.9957924
"Istanbul, Zekeriyaköy - Uskumruköy",1888,1,1,29.0312711,41.195454
"Istanbul, Atasehir",1237,0,1,29.12192170000003,40.9938665
"Istanbul, Yildiz - Çiragan",1475,2,1,29.011600999999928,41.0453742
"Istanbul, Yenitepe",1649,2,2,29.0549024,40.9963896
"Istanbul, Atasehir",1758,1,1,29.12192170000003,40.9938665
"Istanbul, Atasehir",1606,1,1,29.12192170000003,40.9938665
"Istanbul, Atasehir",1649,1,1,29.12192170000003,40.9938665
"Istanbul, Atasehir",1497,1,1,29.12192170000003,40.9938665
"Istanbul, Atasehir",1225,0,1,29.12192170000003,40.9938665
"Istanbul, Zekeriyaköy - Uskumruköy",2192,2,2,29.0301132,41.1960403
"Istanbul, Atasehir",1360,0,1,29.12192170000003,40.9938665
"Istanbul, Zekeriyaköy - Uskumruköy",2951,2,2,29.0312711,41.195454
"Istanbul, Atasehir",1758,0,1,29.12192170000003,40.9938665
"Istanbul, Zekeriyaköy - Uskumruköy",2778,2,2,29.0230461,41.2024411
"Istanbul, Zekeriyaköy - Uskumruköy",2821,2,2,29.0230461,41.2024411
"Istanbul, Maslak",4058,4,2,29.008894800000007,41.1181722
"Istanbul, Atasehir",1323,0,1,29.12192170000003,40.9938665
"Lisbon, Santo António",1920,1,1,-9.1442965,38.7279166
"Istanbul, Atasehir",1506,1,1,29.12192170000003,40.9938665
"Lisbon, Avenidas Novas",2020,1,1,-9.151399099999999,38.73718519999999
"Lisbon, Lapa",2750,2,1,-9.167182200000001,38.7053085
"Lisbon, Saldanha",2080,1,1,-9.1438009,38.7280144
"Lisbon, Arroios",2890,2,1,-9.1423394,38.7275617
"Lisbon, Alcantara",1950,1,1,-9.1737728,38.70593890000001
"Lisbon, Alcantara",2630,2,2,-9.1756809,38.7054159
"Lisbon, Saldanha",3030,2,2,-9.1449379,38.7320408
"Lisbon, Avenidas Novas",3280,3,2,-9.151503099999998,38.73557559999999
"Lisbon, Campo de Ourique",2740,2,2,-9.1634386,38.7175404
"Lisbon, Campolide",2740,2,1,-9.1631618,38.7284922
"Paris, Les Halles",4920,3,3,2.3491642,48.8611509
"Paris, Sentier - Montorgueil",2340,1,1,2.3490633,48.8653985
"Paris, Les Halles",2000,1,1,2.3515396,48.8628045
"Paris, Sentier - Montorgueil",2300,1,1,2.3473726,48.86673099999999
"Paris, Sentier - Montorgueil",3900,2,1,2.344977199999999,48.8670875
"Paris, Les Halles",4200,1,1,2.3498405,48.8607792
"Paris, Sentier - Montorgueil",2900,1,1,2.3495734,48.8641732
"Paris, Grands Boulevards",4700,2,1,2.3348187,48.87287389999999
"Paris, Le Marais - République",3100,1,1,2.3594762,48.8648715
"Paris, Le Marais - République",2240,1,1,2.3769186,48.862525
"Paris, Le Marais - République",3100,2,1,2.3590962,48.86562889999999
"Paris, Le Marais - République",3000,1,1,2.3569503,48.86736149999999
"Paris, Le Marais - République",3600,2,1,2.3576281,48.8654181
"Paris, Le Marais - République",1700,0,1,2.3566426,48.8677998
"Paris, Le Marais - République",3000,2,1,2.372831,48.8664052
"Paris, Le Marais - République",2200,0,1,2.3631208,48.86342229999999
"Paris, Le Marais - République",2500,1,1,2.3698336,48.8613679
"Paris, Le Marais - République",3700,1,1,2.3544484,48.86568579999999
"Paris, Le Marais - République",2200,1,1,2.3613277,48.8658104
"Paris, Le Marais - République",3100,2,1,2.3594615,48.868181
"Paris, Le Marais - République",3950,1,1,2.3544484,48.86568579999999
"Paris, Le Marais - République",1800,1,1,2.372831,48.8664052
"Paris, Le Marais - République",3300,1,1,2.3658927,48.8612358
"Paris, Le Marais - République",6330,3,2,2.3611101,48.8626158
"Paris, Le Marais - République",3500,1,1,2.3631501,48.8627866
"Paris, Bastille",2660,1,1,2.3647577,48.8481171
"Paris, Le Marais - Saint-Paul",2750,0,1,2.3661504,48.857966
"Paris, Quartier Latin",2000,0,1,2.345383,48.84987539999999
"Paris, Bastille",2050,1,1,2.372867700000001,48.85629410000001
"Paris, Le Marais - Saint-Paul",2290,1,1,2.3506389,48.8598046
"Istanbul, Gayrettepe",1519,3,1,29.0001559,41.0630284
"Istanbul, Gayrettepe",2626,2,2,29.00953890290225,41.062567698048134
"Istanbul, Gayrettepe",2061,1,1,29.00953890290225,41.062567698048134
"Berlin, Prenzlauer Berg",1790,1,1,13.4144614,52.5516337
"Istanbul, Gayrettepe",1856,1,1,29.00953890290225,41.062567698048134
"London, Bayswater",5480,2,2,-0.1776485,51.51345449999999
"Lisbon, Amoreiras",2580,2,1,-9.1608514,38.7210771
"Lisbon, Paço do Lumiar",1700,1,1,-9.1551642,38.7765184
"London, Battersea",7918,2,2,-0.1448125,51.4801875
"London, Aldgate",3518,1,1,-0.07351329999999999,51.5147293
"London, Bayswater",2879,0,1,-0.1809884,51.5116698
"Athens, Vasilissis Sofias Avenue",1240,2,1,23.75390749999997,37.9759375
"Athens, Agia Paraskevi",1480,3,2,23.8156025,38.0087205
"Lisbon, Lapa",2450,1,1,-9.1608888,38.70589919999999
"Lisbon, Baixa",2380,1,1,-9.1388485,38.7141408
"London, Bayswater",3309,1,1,-0.1931213,51.5148751
"Athens, Elliniko",2000,2,1,23.7454993,37.889124
"Athens, Kifisia",1760,3,2,23.8100277,38.0996561
"Athens, Pangrati",1420,3,1,23.7428083,37.9624335
"Athens, Palaio Faliro",2280,4,2,23.6930554,37.9309567
"Athens, Elliniko",1850,2,1,23.7304081,37.8818536
"Athens, Kifisia",1560,2,1,23.81380390000004,38.0699664
"Athens, Pangrati",1260,2,2,23.744258,37.9618875
"Athens, Piraeus",1140,2,1,23.632601199999954,37.9494798
"Athens, Melissia",1400,3,1,23.8293094,38.0547641
"Barcelona, La Dreta de l'Eixample",2730,3,1,2.1750559,41.38910449999999
"Basel, Altstadt Grossbasel",2349,1,1,7.589600799999998,47.5556339
"Barcelona, Sagrada Familia",1850,1,1,2.1800265,41.4037667
"Berlin, Friedrichshain",2360,1,1,13.4406259,52.5050299
"Athens, Neo Psychiko",1600,2,1,23.7817579,38.00835430000001
"Barcelona, La Dreta de l'Eixample",2500,2,1,2.1690864,41.3880627
"Barcelona, La Bordeta",2200,3,2,2.123353,41.3763925
"Barcelona, La Bordeta",1950,3,2,2.1405246,41.3677529
"Barcelona, Galvany",1650,2,1,2.1450379,41.3954503
"Barcelona, Les Tres Torres",2740,3,2,2.1388744,41.3929293
"Barcelona, Galvany",2300,2,1,2.1319103,41.3931707
"Barcelona, Antiga Esquerra de l'Eixample",2130,3,1,2.1513554,41.3936365
"Barcelona, Les Tres Torres",4220,4,2,2.1374567,41.39475419999999
"Berlin, Charlottenburg",1630,0,1,13.329638,52.50057469999999
"Berlin, Prenzlauer Berg",3080,2,1,13.4145912,52.551494
"Athens, Chalandri",1450,2,1,23.80010960000004,38.02931290000001
"Lisbon, Parque das Naçoes",2170,1,1,-9.097876299999998,38.7746579
"London, Canary Wharf",3170,1,1,-0.0191684,51.501474
"London, Whitechapel/Brick Lane",5341,2,2,-0.0690358,51.51397249999999
"Lisbon, Parque das Naçoes",1820,1,1,-9.098258099999997,38.7564395
"Istanbul, Nisbetiye",2235,4,2,29.03075896679536,41.076095124956126
"Istanbul, Nisbetiye",2799,3,2,29.0211828,41.0764518
"Istanbul, Nisbetiye",1172,2,1,29.0215045,41.0721611
"London, Canary Wharf",3727,1,1,-0.0185601,51.5010795
"Istanbul, Nisbetiye",1692,2,1,29.02116000000001,41.07412799999999
"Istanbul, Nisbetiye",2951,4,3,29.01987310000004,41.06987780000001
"Istanbul, Nisbetiye",2626,2,1,29.021613500000058,41.07236520000001
"Istanbul, Nisbetiye",1758,2,1,29.0192338,41.0725862
"Istanbul, Nisbetiye",1736,2,2,29.02160200000003,41.0760361
"Istanbul, Nisbetiye",2474,3,2,29.01987310000004,41.06987780000001
"Istanbul, Nisbetiye",2539,2,2,29.021631,41.075843
"Istanbul, Suadiye",1888,3,1,29.0881046,40.9621699
"Istanbul, Nisbetiye",2647,3,1,29.02012,41.074985
"Istanbul, Sahrayicedid",1584,1,1,29.05552130000001,40.9753579
"Istanbul, Sisli",1497,1,1,28.9902044,41.0611676
"Athens, Glyfada",2100,3,2,23.75324389999999,37.88474319999999
"Athens, Koukaki",1120,2,2,23.716197400000055,37.964385
"Athens, Psychiko",920,1,1,23.770597299999963,38.0121322
"Barcelona, Vila de Gràcia",2380,2,2,2.1566722,41.4030943
"Basel, Allschwil",1896,2,1,7.5417037,47.5502905
"Berlin, Kreuzberg",1990,1,1,13.4196854,52.4887482
"Athens, Koukaki",840,1,1,23.7248044,37.9647003
"Athens, Piraeus",790,1,1,23.632601199999954,37.9494798
"Istanbul, Nisantasi",1953,2,1,28.9925517,41.0518642
"Athens, Piraeus",1050,2,1,23.632601199999954,37.9494798
"Athens, Kolonaki",2300,2,1,23.744169100000022,37.97982349999999
"Athens, Kifisia",1760,3,2,23.8100277,38.0996561
"Athens, Pangrati",1420,3,1,23.7428083,37.9624335
"Athens, Palaio Faliro",2280,4,2,23.6930554,37.9309567
"Athens, Elliniko",1850,2,1,23.7304081,37.8818536
"Athens, Kifisia",1560,2,1,23.81380390000004,38.0699664
"Athens, Pangrati",1260,2,2,23.744258,37.9618875
"Athens, Piraeus",1140,2,1,23.632601199999954,37.9494798
"Athens, Melissia",1400,3,1,23.8293094,38.0547641
"Barcelona, La Dreta de l'Eixample",2730,3,1,2.1750559,41.38910449999999
"Basel, Iselin",1813,1,1,7.570903500000001,47.56102010000001
"Berlin, Friedrichshain",3150,2,1,13.4563407,52.5136897
"Athens, Glyfada",1580,2,2,23.7603758,37.8772864
"Berlin, Neukölln",1720,1,1,13.4244292,52.47719129999999
"Athens, Acropolis",1740,2,1,23.727338099999997,37.9678286
"Athens, Marousi",1230,2,1,23.7809973,38.0325913
"Athens, Vasilissis Sofias Avenue",1020,1,1,23.7530604,37.9775624
"Athens, Agia Paraskevi",1350,2,1,23.8264367,38.0080922
"Athens, Voula",2010,2,1,23.770573499999955,37.8512861
"Athens, Nea Erithrea",2240,4,3,23.8132156,38.0996271
"Lisbon, Santo António",2780,2,2,-9.1440352,38.72512100000001
"Lisbon, Campolide",1890,1,1,-9.1622278,38.7384841
"Lisbon, Lapa",2770,3,2,-9.1591836,38.7120512
"Lisbon, Avenidas Novas",2640,2,2,-9.144591799999999,38.7383745
"London, Bethnal Green",3843,2,1,-0.0672252,51.5236423
"Lisbon, Campolide",1810,1,1,-9.161068299999998,38.7306468
"Athens, Lycabettus",1300,2,1,23.751986399999964,37.98640299999999
"Berlin, Neukölln",1720,1,1,13.4244292,52.47719129999999
"Athens, Acropolis",1740,2,1,23.727338099999997,37.9678286
"Athens, Marousi",1230,2,1,23.7809973,38.0325913
"Athens, Vasilissis Sofias Avenue",1020,1,1,23.7530604,37.9775624
"Athens, Acropolis",1080,2,1,23.726837299999943,37.96594810000001
"Athens, Marousi",1050,2,1,23.8180616,38.047418
"Athens, Stavros Niarchos Park Area",1760,2,1,23.69007,37.941268
"Barcelona, El Gòtic",2630,2,2,2.177905299999999,41.3785835
"Basel, Matthäus",2163,2,1,7.5973878,47.5696287
"Berlin, Neukölln",1770,0,1,13.446744,52.47928839999999
"Athens, Agia Paraskevi",1350,2,1,23.8264367,38.0080922
"Athens, Nea Erithrea",2570,4,3,23.814695,38.0987019
"Athens, Voula",1380,1,1,23.771243700000014,37.8472745
"Athens, Ampelokipoi",890,1,1,23.7632596,37.9890443
"Athens, Nea Erithrea",3110,4,3,23.814695,38.0987019
"Athens, Voula",1240,2,1,23.7549911,37.8526922
"Barcelona, La Dreta de l'Eixample",4200,2,2,2.1655243,41.3911857
"Athens, Vrilissia",1350,3,2,23.835676899999953,38.0408395
"Athens, Cholargos",1360,3,1,23.79920100000004,37.9966329
"Madrid, Delicias",2040,1,1,-3.6961895,40.40148569999999
"Madrid, Chueca/Justicia",2780,2,2,-3.6993623,40.423486
"Madrid, Huertas/Cortes",1900,1,1,-3.6955573,40.41287639999999
"Madrid, Huertas/Cortes",1880,2,1,-3.6966847,40.41222080000001
"Athens, Acropolis",1300,2,1,23.7271827,37.967006
"Athens, Marousi",1590,3,1,23.81626849999998,38.04598149999999
"Athens, Psychiko",1580,2,1,23.771875300000033,38.0008595
"London, Bayswater",3483,1,1,-0.1931213,51.5148751
"Copenhagen, Sydhavnen",2702,1,1,12.5485913,55.64707240000001
"Copenhagen, Amager",3149,2,2,12.581904,55.667076
"London, Bayswater",4203,2,1,-0.1869339,51.5110324
"Lisbon, Alfama",3170,2,1,-9.1329496,38.71136719999999
"London, Canary Wharf",4470,2,2,-0.0147886,51.4970623
"London, Bayswater",3216,1,1,-0.186063,51.5121852
"Lisbon, Laranjeiras",2500,2,2,-9.172090899999999,38.7539342
"Istanbul, Suadiye",1844,2,2,29.076175000000035,40.96083
"Istanbul, Seyrantepe",3825,3,2,28.9794247,41.1031384
"Istanbul, Seyrantepe",3147,3,2,28.99969699999997,41.10770350000001
"Istanbul, Sisli",1258,3,3,28.9857129,41.0627611
"Istanbul, Suadiye",1823,2,1,29.087387000000035,40.964455
"Istanbul, Suadiye",3103,3,2,29.0865696,40.9583769
"Athens, Acropolis",2230,2,1,23.7307058,37.9697949
"Athens, Marousi",890,2,1,23.81142920000002,38.0356612
"Athens, Stavros Niarchos Park Area",1150,2,2,23.6966435,37.9450793
"Barcelona, El Born",2490,3,2,2.1846826,41.3841761
"Barcelona, Sagrada Familia",1870,2,1,2.1800265,41.4037667
"Basel, Bachletten",2050,1,1,7.561779499999999,47.545807
"Basel, Gundeldingen",3266,3,1,7.5878146,47.5452535
"Berlin, Mitte",4040,2,2,13.4032852,52.52478029999999
"Berlin, Mitte",2060,0,1,13.4031275,52.5241629
"Athens, Acropolis",990,2,1,23.7267623,37.9656671
"Berlin, Neukölln",1410,1,1,13.4366736,52.4671824
"Basel, Matthäus",2256,2,1,7.590466399999999,47.5660348
"Athens, Lycabettus",1670,2,1,23.7409672,37.9841214
"Istanbul, Kozyatagi",2821,3,3,29.084133,40.9735883
"Istanbul, Kemerburgaz",1497,2,2,28.9151027,41.1622069
"Istanbul, Kosuyolu",3081,3,3,29.041891,41.014667
"Istanbul, Kosuyolu",3103,4,3,29.041891,41.014667
"Istanbul, Kosuyolu",2452,2,2,29.041891,41.014667
"Athens, Vasilissis Sofias Avenue",1390,2,1,23.751584800000046,37.9774659
"Athens, Acropolis",1000,1,1,23.72610439999994,37.9664113
"Athens, Melissia",1500,3,1,23.8484388,38.06143
"Athens, Acropolis",1650,3,2,23.7274714,37.9673224
"Athens, Melissia",1120,2,1,23.843578,38.0534992
"Athens, Vasilissis Sofias Avenue",1290,2,1,23.7524519,37.9775773
"Athens, Vasilissis Sofias Avenue",1340,3,1,23.758284,37.9822266
"Athens, Agia Paraskevi",1080,1,1,23.8349076,38.0115287
"Athens, Melissia",1350,2,1,23.8307732,38.05349789999999
"Athens, Vasilissis Sofias Avenue",1090,2,1,23.7532295,37.9769573
"Athens, Filothei",1440,2,1,23.77927890000001,38.02544049999999
"Athens, Glyfada",2100,3,1,23.7600057,37.8540639
"Athens, Glyfada",1250,2,1,23.762602,37.8764265
"Athens, Palaio Faliro",1870,3,2,23.7005952,37.9280057
"Athens, Glyfada",1110,1,1,23.746744,37.881917
"Paris, Quartier Latin",2690,1,1,2.346665299999999,48.8525135
"Paris, Quartier Latin",6810,3,2,2.3415316,48.8460052
"Paris, Quartier Latin",4300,2,1,2.3529876,48.8408653
"Paris, Quartier Latin",2800,1,1,2.3479696,48.8440024
"Paris, Quartier Latin",2400,0,1,2.3479834,48.8439038
"Paris, Quartier Latin",3300,0,1,2.344177,48.8454926
"Paris, Quartier Latin",2800,1,1,2.3471343,48.8486302
"Paris, Quartier Latin",3300,1,1,2.3516768,48.84684370000001
"Paris, Saint-Germain-des-Prés",2200,1,1,2.3313049,48.8514115
"Paris, Saint-Germain-des-Prés",2530,0,1,2.3357793,48.8412429
"London, Canary Wharf",3239,1,1,-0.0191684,51.501474
"London, Canary Wharf",6258,3,2,-0.0192002,51.4995533
"London, Bayswater",4656,2,1,-0.1873083,51.51232719999999
"London, Bayswater",3123,1,1,-0.1873083,51.51232719999999
"Athens, Melissia",1950,3,2,23.83210639999993,38.04816299999999
"London, Bayswater",4598,2,1,-0.1896894,51.5164891
"London, Bayswater",4644,2,1,-0.1873083,51.51232719999999
"Istanbul, Kosuyolu",2300,3,2,29.0383715,41.0056239
"Istanbul, Kosuyolu",1540,3,2,29.0456926,41.00956099999999
"Istanbul, Kosuyolu",2148,3,1,29.0343208,41.0140311
"Istanbul, Kozyatagi",1978,2,1,29.0935308,40.9676564
"Istanbul, Kozyatagi",2821,3,3,29.084133,40.9735883
"Istanbul, Kemerburgaz",1497,2,2,28.9151027,41.1622069
"Istanbul, Kosuyolu",3081,3,3,29.041891,41.014667
"Istanbul, Kosuyolu",3103,4,3,29.041891,41.014667
"Istanbul, Kosuyolu",2452,2,2,29.041891,41.014667
"Athens, Vasilissis Sofias Avenue",1390,2,1,23.751584800000046,37.9774659
"Athens, Stavros Niarchos Park Area",1400,3,1,23.6889848,37.9423232
"Barcelona, El Camp d'en Grassot i Gràcia Nova",2760,2,2,2.1516045,41.3997478
"Basel, Rosental",1999,1,1,7.6006741,47.5684066
"Berlin, Neukölln",1970,2,1,13.4286089,52.4796714
"Athens, Mets - Kallimarmaro",1340,2,1,23.73355879999997,37.9666401
"Athens, Melissia",1490,3,2,23.8427415,38.0532105
"Athens, Cholargos",1780,2,1,23.79536469999999,38.0019869
"Athens, Elliniko",970,1,1,23.730852099999993,37.8822626
"Luxembourg, Grund",2140,1,1,6.135803,49.6081244
"Luxembourg, Bonnevoie",1990,1,1,6.140369199999999,49.5912891
"Luxembourg, Belair",3680,2,1,6.116107699999998,49.61122619999999
"Madrid, Trafalgar",1850,2,1,-3.7031621,40.4351278
"Madrid, Bernabeú-Hispanoamérica",1770,0,1,-3.680138600000001,40.4565594
"Athens, Neo Psychiko",2390,3,2,23.7779733,38.0054932
"Athens, Nea Smyrni",1280,2,2,23.7022682,37.9439344
"Athens, Kolonaki",660,0,1,23.742002700000057,37.9785774
"Athens, Chalandri",940,1,1,23.796170999999894,38.030765499999994
"Athens, Nea Smyrni",1180,2,1,23.7157041,37.95286979999999
"Athens, Vouliagmeni",1960,2,1,23.78221099999996,37.82286059999999
"Athens, Vrilissia",1350,3,2,23.835676899999953,38.0408395
"Athens, Cholargos",1360,3,1,23.79920100000004,37.9966329
"Athens, Elliniko",1820,3,1,23.74845460000006,37.89558359999999
"Paris, Monceau",2500,1,1,2.3148667,48.87938139999999
"Paris, Louvre",4090,1,1,2.3415219,48.86034730000001
"Paris, Louvre",3700,1,1,2.334807,48.862982
"Paris, Anatole-",2190,1,1,2.2873987,48.8920707
"Paris, Ternes",2000,1,1,2.2972941,48.8824105
"Paris, Abbesses - Montmartre",2300,1,1,2.3473009,48.8850433
"Paris, Bastille",2710,2,1,2.3660337,48.8534459
"Paris, Ternes",2800,1,1,2.2903676,48.88300650000001
"Paris, Monceau",2800,1,1,2.3049078,48.8812384
"Paris, Saint-Germain-des-Prés",3500,1,1,2.3266648,48.8573918
"Paris, Canal Saint-Martin",2090,1,1,2.3628113,48.8740169
"Paris, Republique",2100,1,1,2.362917,48.8737528
"Paris, Denfert-Rochereau",2800,2,1,2.3295673,48.8275274
"Paris, Champ de Mars",6160,3,2,2.298782,48.85929400000001
"Paris, Trocadéro",5580,3,2,2.2810623,48.8590791
"Paris, Trocadéro",2300,1,1,2.2917927,48.87400390000001
"Paris, Abbesses - Montmartre",4310,3,2,2.3473009,48.8850433
"Paris, Villiers",3100,2,1,2.316313099999999,48.8823155
"Paris, Republique",3400,2,1,2.3749043,48.8681517
"Paris, Champ de Mars",3300,2,1,2.288367199999999,48.85355759999999
"Paris, Passy",3600,1,1,2.2788562,48.8586197
"Barcelona, El Camp d'en Grassot i Gràcia Nova",2950,2,2,2.1516045,41.3997478
"Barcelona, El Putxet i el Farró",2370,2,1,2.1391535,41.40245789999999
"Istanbul, Fenerbahçe",2712,3,2,29.0404693,40.971908
"Istanbul, Fulya",1172,2,1,28.998338,41.06089
"Istanbul, Feneryolu",2461,3,2,29.0448462,40.9857735
"Istanbul, Feneryolu",1172,1,1,29.0488281,40.9851053
"Istanbul, Fulya",1692,4,1,29.000687,41.06241909999999
"Istanbul, Feneryolu",1106,1,1,29.044329,40.9843731
"Istanbul, Fulya",2797,1,1,28.998253400000067,41.0655781
"Istanbul, Göztepe",1193,3,1,29.0602948,40.9849293
"Istanbul, Göztepe",2864,4,2,29.0552206,40.9709125
"Istanbul, Istinye",1801,3,1,29.0573797,41.1164347
"Istanbul, Istinye",3733,3,2,29.041127,41.1204027
"Istanbul, Göztepe",1584,2,1,29.068516,40.9784265
"Istanbul, Göztepe",3515,4,2,29.0571336,40.97632159999999
"Istanbul, Göztepe",2828,3,2,29.065857,40.9724047
"Istanbul, Levent",2930,1,2,29.012235799999985,41.07588080000001
"Istanbul, Levent - Gültepe",1106,1,1,28.9983941,41.0762765
"Istanbul, Levent",3950,3,2,29.012235799999985,41.07588080000001
"Istanbul, Levent",1975,3,2,29.0185739,41.0906712
"Istanbul, Levent - Gültepe",1172,1,1,28.9983941,41.0762765
"Istanbul, Levent - Gültepe",1172,1,1,28.9983941,41.0762765
"Istanbul, Levent - Gültepe",1215,1,1,28.9983941,41.0762765
"Istanbul, Nisantasi",2691,2,1,28.9933596,41.0525192
"Istanbul, Nisantasi",1627,2,1,28.99683600000003,41.0489184
"Istanbul, Esentepe",3081,1,1,29.012386982803378,41.072524661428396
"Istanbul, Nisantasi",1935,3,2,28.994545,41.053098
"Istanbul, Zekeriyaköy - Uskumruköy",3103,3,2,29.0308295,41.1944753
"Istanbul, Ayazaga",2939,3,2,28.98637400000007,41.11302999999999
"Istanbul, Seyrantepe",1817,2,2,28.99969699999997,41.10770350000001
"Istanbul, Etiler - Akatlar",2148,2,2,29.035944599999993,41.0834096
"London, Bayswater",4609,1,1,-0.1854656,51.5109837
"Lisbon, Lapa",2870,2,1,-9.167182200000001,38.7053085
"Lisbon, Avenidas Novas",3300,2,2,-9.1479473,38.73344489999999
"Lisbon, Principe Real",3010,2,1,-9.152995399999998,38.71784239999999
"London, Camden Town",4377,2,1,-0.1384206,51.54147099999999
"Lisbon, Chiado",3140,2,2,-9.143220399999997,38.7124197
"London, Stockwell",3588,2,2,-0.1175997,51.4757425
"London, Camden Town",5004,2,2,-0.1433954,51.5382191
"Istanbul, Fulya",2495,1,1,28.998253400000067,41.0655781
"Istanbul, Fulya",1540,1,1,28.999655200000007,41.0535865
"Athens, Vasilissis Sofias Avenue",1360,2,1,23.754053,37.978688
"Athens, Vasilissis Sofias Avenue",1480,2,1,23.7563162,37.977237
"Istanbul, Fulya",1627,1,1,28.998890000000074,41.0566493
"Athens, Vasilissis Sofias Avenue",1290,2,1,23.7568841,37.981102
"Istanbul, Gayrettepe",2582,4,2,29.0055752,41.0662773
"Istanbul, Fulya",1888,1,1,29.000427400000035,41.0576025
"Istanbul, Fulya",1866,3,2,29.000528,41.064642
"Istanbul, Fulya",2821,2,1,28.99886729999999,41.0546477
"Istanbul, Fulya",2691,1,1,28.998253400000067,41.0655781
"Istanbul, Gayrettepe",1823,1,1,29.00953890290225,41.062567698048134
"Athens, Melissia",1500,3,2,23.8487021,38.062925
"Istanbul, Gayrettepe",2061,1,1,29.00953890290225,41.062567698048134
"Berlin, Prenzlauer Berg",1790,1,1,13.4144614,52.5516337
"Istanbul, Gayrettepe",1856,1,1,29.00953890290225,41.062567698048134
"London, Bayswater",5480,2,2,-0.1776485,51.51345449999999
"Lisbon, Amoreiras",2580,2,1,-9.1608514,38.7210771
"Lisbon, Paço do Lumiar",1700,1,1,-9.1551642,38.7765184
"London, Battersea",7918,2,2,-0.1448125,51.4801875
"Istanbul, Gayrettepe",1519,3,1,29.0001559,41.0630284
"Vienna, 1st district – Innere Stadt",2920,2,1,16.3707476,48.21242220000001
"Vienna, 20th district - Brigittenau",1220,1,1,16.3711351,48.2305864
"Vienna, 14th district - Penzing",1400,1,1,16.3100092,48.1984608
"Vienna, 14th district - Penzing",1320,1,1,16.3100092,48.1984608
"Vienna, 20th district - Brigittenau",1510,1,1,16.3885484,48.2390656
"Vienna, 17th district - Hernals",1360,1,1,16.332128,48.2214884
"Vienna, 19th district - Döbling",1960,2,1,16.3580154,48.2498649
"Vienna, 19th district - Döbling",1370,1,1,16.3493335,48.2347639
"Vienna, 1st district – Innere Stadt",3320,2,1,16.3769038,48.209224
"Vienna, 1st district – Innere Stadt",1630,1,1,16.3672249,48.2125651
"Vienna, 1st district – Innere Stadt",3220,3,1,16.381296,48.21092650000001
"Vienna, 1st district – Innere Stadt",2510,2,2,16.3748378,48.2073777
"Vienna, 1st district – Innere Stadt",2860,2,1,16.3748378,48.2073777
"Vienna, 1st district – Innere Stadt",1470,0,1,16.3712681,48.2126708
"Vienna, 1st district – Innere Stadt",2640,2,1,16.3726143,48.2116355
"Vienna, 1st district – Innere Stadt",2120,1,1,16.3798319,48.2111635
"Vienna, 1st district – Innere Stadt",1890,1,1,16.3729641,48.21388349999999
"Vienna, 1st district – Innere Stadt",4200,2,1,16.3580979,48.2054149
"Istanbul, Maslak",1562,1,1,29.01473,41.1118
"Vienna, 17th district - Hernals",1160,1,1,16.3298943,48.22020329999999
"Vienna, 1st district – Innere Stadt",3000,2,1,16.3707476,48.21242220000001
"Vienna, 1st district – Innere Stadt",3530,2,1,16.3742845,48.2132935
"Vienna, 1st district – Innere Stadt",4650,2,2,16.3712681,48.2126708
"Vienna, 1st district – Innere Stadt",1870,1,1,16.375402,48.2057642
"Vienna, 20th district - Brigittenau",1490,2,1,16.3843564,48.24095459999999
"Vienna, 20th district - Brigittenau",1860,2,1,16.3887103,48.2389805
"Vienna, 20th district - Brigittenau",2050,2,1,16.3887103,48.2389805
"Vienna, 20th district - Brigittenau",1120,1,1,16.3711351,48.2305864
"Vienna, 20th district - Brigittenau",1270,1,1,16.387795,48.2398872
"Vienna, 20th district - Brigittenau",1520,1,1,16.3720818,48.228691
"Berlin, Prenzlauer Berg",1810,1,1,13.4144614,52.5516337
"Athens, Palaio Faliro",1680,2,1,23.708355,37.928064
"Athens, Acropolis",1840,2,1,23.7247812,37.96655690000001
"Athens, Marousi",980,3,1,23.7686517,38.0345292
"Athens, Stavros Niarchos Park Area",1050,1,1,23.6932225,37.9457311
"Barcelona, El Born",2630,2,1,2.1810497,41.3896867
"Basel, Matthäus",2472,1,1,7.590466399999999,47.5660348
"Berlin, Neukölln",1440,1,1,13.446242,52.479007
"Berlin, Prenzlauer Berg",2710,2,1,13.41186,52.55186
"Athens, Agia Paraskevi",1160,1,1,23.8349076,38.0115287
"Athens, Melissia",1620,2,1,23.8436967,38.0530734
"Athens, Vasilissis Sofias Avenue",1050,2,2,23.7598231,37.9807534
"Athens, Agia Paraskevi",1710,2,1,23.826235600000018,38.0062005
"Athens, Melissia",1690,3,1,23.8347576,38.0562346
"Luxembourg, Grund",2140,1,1,6.135803,49.6081244
"Luxembourg, Bonnevoie",1990,1,1,6.140369199999999,49.5912891
"Luxembourg, Belair",3680,2,1,6.116107699999998,49.61122619999999
"Madrid, Trafalgar",1850,2,1,-3.7031621,40.4351278
"Madrid, Bernabeú-Hispanoamérica",1770,0,1,-3.680138600000001,40.4565594
"Madrid, Nueva España",1500,2,1,-3.669304999999999,40.46340229999999
"Madrid, Trafalgar",1770,1,1,-3.7031621,40.4351278
"Madrid, Argüelles",1680,1,1,-3.712850100000001,40.42499410000001
"Luxembourg, Eich",2540,2,1,6.1306366,49.62846829999999
"Luxembourg, Eich",1960,1,1,6.133774600000001,49.6313436
"Luxembourg, Merl",2940,2,1,6.1143895,49.6024529
"Luxembourg, Cessange",2090,1,1,6.099147599999999,49.5874575
"Luxembourg, Kirchberg",3290,2,1,6.1630147,49.6373144
"Luxembourg, Fentange",2690,2,1,6.1496248,49.5616265
"Luxembourg, Gare",3290,2,1,6.1295173,49.602035
"Luxembourg, Bonnevoie",2070,1,1,6.140369199999999,49.5912891
"Paris, Saint-Germain-des-Prés",2430,1,1,2.3390366,48.851673
"Paris, Saint-Germain-des-Prés",2170,0,1,2.3244581,48.84900870000001
"Paris, Saint-Germain-des-Prés",4090,1,1,2.340764999999999,48.85270199999999
"Paris, Invalides",5340,2,2,2.31755,48.8572076
"Paris, Champ de Mars",4200,2,2,2.2993088,48.859723
"Paris, Monceau",7540,3,2,2.3163334,48.8802986
"Paris, Champs-Élysées",2670,1,1,2.3021792,48.8727295
"Paris, Batignolles",2300,1,1,2.3165152,48.8838028
"Paris, Le Marais - Saint-Paul",3870,2,1,2.3497473,48.85863499999999
"Paris, Madeleine",2700,1,1,2.3257899,48.8681771
"Paris, Notre-Dame-de-Lorette",4300,2,1,2.3355339,48.8763513
"Paris, Passy",3000,1,1,2.2766441,48.856736
"Paris, Pigalle",5800,3,1,2.3288025,48.8820535
"Paris, Saint-Germain-des-Prés",2200,1,1,2.3376699,48.8542753
"Paris, Saint-Germain-des-Prés",2700,1,1,2.32833,48.8434234
"Paris, Saint-Germain-des-Prés",2180,0,1,2.3351547,48.8549503
"Paris, Saint-Germain-des-Prés",2200,0,1,2.3289067,48.8533624
"Paris, Saint-Germain-des-Prés",2700,1,1,2.3357793,48.8412429
"Paris, Saint-Germain-des-Prés",4100,2,1,2.3331231,48.85287659999999
"Paris, Saint-Germain-des-Prés",2800,1,1,2.3255114,48.8497151
"Paris, Odéon",2700,1,1,2.3401285,48.8554795
"Paris, Odéon",4000,1,1,2.3370675,48.8545238
"Paris, Saint-Germain-des-Prés",3870,2,1,2.3338521,48.8522176
"Paris, Saint-Germain-des-Prés",5690,3,1,2.3297578,48.8496209
"Paris, Saint-Germain-des-Prés",2700,1,1,2.3351389,48.8500203
"Paris, Invalides",6150,3,1,2.324305,48.8598463
"Paris, École Militaire",3100,1,1,2.3015368,48.86073760000001
"Paris, Invalides",2720,1,1,2.3185467,48.8485684
"Paris, Invalides",5400,2,2,2.319249,48.85283949999999
"Paris, Invalides",2500,1,1,2.3091008,48.8597848
"Basel, Rosental",1999,1,1,7.6006741,47.5684066
"Berlin, Neukölln",1970,2,1,13.4286089,52.4796714
"Athens, Mets - Kallimarmaro",1340,2,1,23.73355879999997,37.9666401
"Athens, Melissia",1490,3,2,23.8427415,38.0532105
"Copenhagen, Sluseholmen",2349,1,1,12.5479935,55.646518
"Basel, Altstadt Grossbasel",2349,1,1,7.589600799999998,47.5556339
"Barcelona, Sagrada Familia",1850,1,1,2.1800265,41.4037667
"Berlin, Friedrichshain",2360,1,1,13.4406259,52.5050299
"Athens, Politeia",1420,2,1,23.8252196,38.0827593
"Basel, Wettstein",1906,1,1,7.6013424,47.55901770000001
"Berlin, Kreuzberg",1390,0,1,13.4287261,52.4995609
"Athens, Lycabettus",1060,1,1,23.7415052,37.9848269
"Athens, Politeia",4270,3,3,23.8249106,38.085528
"Athens, Lycabettus",1200,2,1,23.7422951,37.9851552
"Athens, Politeia",4200,4,3,23.8320106,38.0862168
"Barcelona, Antiga Esquerra de l'Eixample",2540,3,2,2.1505687,41.3869029
"Barcelona, Vila de Gràcia",1820,2,1,2.1592414,41.3994936
"Basel, Gundeldingen",2730,2,1,7.590839399999999,47.5440919
"Berlin, Mitte",2520,2,1,13.3707292,52.501772
"Basel, Am Ring",2308,1,1,7.576747999999999,47.5552489
"Berlin, Mitte",2430,2,1,13.3583716,52.5013987
"Athens, Alimos",1650,3,1,23.7142165,37.9159515
"Athens, Voula",1540,2,1,23.76149829999997,37.8476244
"Athens, Mets - Kallimarmaro",1280,1,1,23.7413318,37.9643827
"Athens, Vrilissia",1730,4,2,23.8419789,38.0339968
"Athens, Ampelokipoi",1220,3,1,23.7560355,37.991177
"Athens, Vrilissia",1890,3,2,23.8481792,38.0461905
"Athens, Vrilissia",1520,2,1,23.833094999999958,38.030745
"Berlin, Schöneberg",2320,1,1,13.3698096,52.4992831
"Berlin, Schöneberg",2610,2,1,13.3698096,52.4992831
"Athens, Kolonaki",1110,1,1,23.744989799999985,37.9789751
"Athens, Politeia",1960,3,2,23.82864380000001,38.076035
"Basel, Am Ring",3039,1,1,7.5809945,47.5541185
"Lisbon, Chiado",2230,1,1,-9.1446215,38.7088529
"Istanbul, Levazim",1736,3,1,29.018573699999934,41.0646822
"Istanbul, Mecidiyeköy",1172,2,1,28.9951667,41.06804200000001
"Istanbul, Saskinbakkal",2257,3,2,29.07507349999999,40.9605598
"Istanbul, Ulus",1953,3,1,29.027967799999942,41.0581177
"Lisbon, Chiado",4320,3,3,-9.1430746,38.71282689999999
"Lisbon, Santo António",3400,2,2,-9.154725599999999,38.7235914
"Athens, Elliniko",2370,3,2,23.7503404,37.8918677
"Lisbon, Avenidas Novas",2100,1,1,-9.146583999999999,38.73500749999999
"London, Whitechapel/Brick Lane",4087,2,2,-0.0566694,51.5186213
"Istanbul, Bebek",1627,1,1,29.0451063,41.0795529
"Istanbul, Atasehir",1865,2,2,29.12192170000003,40.9938665
"Istanbul, Atasehir",1554,2,2,29.1082946,40.99241139999999
"Istanbul, Atasehir",1268,1,1,29.12192170000003,40.9938665
"Athens, Glyfada",2100,3,2,23.75324389999999,37.88474319999999
"Athens, Koukaki",1120,2,2,23.716197400000055,37.964385
"Athens, Psychiko",920,1,1,23.770597299999963,38.0121322
"Barcelona, Vila de Gràcia",2380,2,2,2.1566722,41.4030943
"Basel, Allschwil",1896,2,1,7.5417037,47.5502905
"Berlin, Kreuzberg",1990,1,1,13.4196854,52.4887482
"Athens, Koukaki",840,1,1,23.7248044,37.9647003
"Copenhagen,  central",3016,2,1,12.6154743,55.6864656
"Athens, Acropolis",1300,2,1,23.7271827,37.967006
"Athens, Marousi",1590,3,1,23.81626849999998,38.04598149999999
"Athens, Psychiko",1580,2,1,23.771875300000033,38.0008595
"London, Bayswater",3483,1,1,-0.1931213,51.5148751
"Copenhagen, Sydhavnen",2702,1,1,12.5485913,55.64707240000001
"Paris, Les Halles",4200,1,1,2.3498405,48.8607792
"Paris, Sentier - Montorgueil",2900,1,1,2.3495734,48.8641732
"Paris, Grands Boulevards",4700,2,1,2.3348187,48.87287389999999
"Paris, Le Marais - République",3100,1,1,2.3594762,48.8648715
"Paris, Le Marais - République",2240,1,1,2.3769186,48.862525
"Paris, Le Marais - République",3100,2,1,2.3590962,48.86562889999999
"Paris, Le Marais - République",3000,1,1,2.3569503,48.86736149999999
"Paris, Le Marais - République",3600,2,1,2.3576281,48.8654181
"Paris, Le Marais - République",1700,0,1,2.3566426,48.8677998
"Paris, Le Marais - République",3000,2,1,2.372831,48.8664052
"Paris, Le Marais - République",2200,0,1,2.3631208,48.86342229999999
"Paris, Le Marais - République",2500,1,1,2.3698336,48.8613679
"Paris, Le Marais - République",3700,1,1,2.3544484,48.86568579999999
"Paris, Le Marais - République",2200,1,1,2.3613277,48.8658104
"Paris, Le Marais - République",3100,2,1,2.3594615,48.868181
"Paris, Le Marais - République",3950,1,1,2.3544484,48.86568579999999
"Paris, Le Marais - République",1800,1,1,2.372831,48.8664052
"Paris, Le Marais - République",3300,1,1,2.3658927,48.8612358
"Paris, Le Marais - République",6330,3,2,2.3611101,48.8626158
"Paris, Le Marais - République",3500,1,1,2.3631501,48.8627866
"Paris, Bastille",2660,1,1,2.3647577,48.8481171
"Paris, Le Marais - Saint-Paul",2750,0,1,2.3661504,48.857966
"Paris, Quartier Latin",2000,0,1,2.345383,48.84987539999999
"Paris, Bastille",2050,1,1,2.372867700000001,48.85629410000001
"Paris, Le Marais - Saint-Paul",2290,1,1,2.3506389,48.8598046
"Paris, Le Marais - Saint-Paul",3700,1,1,2.3557745,48.8594231
"Paris, Le Marais - Saint-Paul",2310,1,1,2.3667221,48.85693490000001
"Paris, Le Marais - Saint-Paul",4410,3,2,2.366021699999999,48.859018
"Paris, Le Marais - Saint-Paul",3400,1,1,2.3609694,48.8609409
"Paris, Bastille",3450,2,1,2.3842009,48.8541807
"Istanbul, Bomonti",1801,1,1,28.98018729999999,41.0605116
"Istanbul, Levent - Gültepe",1128,1,1,28.9968252182006,41.0786394544723
"Istanbul, Kartal",1776,2,1,29.1999433,40.8974925
"Istanbul, Kartal",1554,2,2,29.1850161,40.9088583
"Istanbul, Kartal",1562,3,2,29.1999433,40.8974925
"Istanbul, Kartal",1085,1,1,29.1999433,40.8974925
"Istanbul, Kagithane",1128,1,1,28.9813267,41.085736
"Istanbul, Levent - Gültepe",1097,1,1,28.9983941,41.0762765
"Istanbul, Levent - Gültepe",1215,1,1,28.9983941,41.0762765
"Istanbul, Kagithane",1779,2,1,28.9813267,41.085736
"Istanbul, Kartal",1128,1,1,29.20441659999999,40.8843121
"Athens, Ampelokipoi",990,2,1,23.7705575,37.9839297
"Athens, Voula",2370,2,1,23.7682215,37.8436408
"Athens, Kifisia",2080,3,1,23.8034218,38.08944419999999
"Basel, Altstadt Grossbasel",2349,1,1,7.589600799999998,47.5556339
"Barcelona, Sagrada Familia",1850,1,1,2.1800265,41.4037667
"Berlin, Friedrichshain",2360,1,1,13.4406259,52.5050299
"Istanbul, Ulus",3016,3,2,29.0244891,41.0613016
"Istanbul, Ulus",2821,3,2,29.03032049999999,41.066561
"Istanbul, Yenitepe",1353,1,1,29.0544467,40.996525
"Istanbul, Yenitepe",1258,1,1,29.0450969,40.9908627
"Istanbul, Yildiz - Çiragan",3168,4,2,29.0114134,41.04744559999999
"Istanbul, Yildiz - Çiragan",1758,2,1,29.01153320000003,41.0447395
"Istanbul, Yenitepe",889,1,1,29.0549024,40.9963896
"Lisbon, Santo António",2540,1,1,-9.155145599999999,38.7184754
"Istanbul, Ulus",1975,2,1,29.02839300000005,41.056876
"Istanbul, Zekeriyaköy - Uskumruköy",1367,2,1,29.0213026,41.2078935
"Istanbul, Zekeriyaköy - Uskumruköy",2951,3,2,29.02773879999999,41.2053534
"Istanbul, Yenitepe",1323,2,1,29.0460571,40.9884193
"Istanbul, Yeniköy",2864,3,3,29.0670948,41.1239894
"Barcelona, Nova Esquerra de l'Eixample",2370,3,2,2.1511774,41.3776527
"Athens, Kifisia",700,0,1,23.814744099999984,38.0666526
"Athens, Kolonaki",650,0,1,23.737041399999953,37.9827466
"Athens, Vrilissia",1890,3,2,23.8481792,38.0461905
"Athens, Vrilissia",1520,2,1,23.833094999999958,38.030745
"Athens, Piraeus",850,1,1,23.632601199999954,37.9494798
"Athens, Piraeus",1160,2,1,23.63256439999998,37.950308
"Barcelona, La Dreta de l'Eixample",1940,3,1,2.165958,41.3973338
"Barcelona, Nova Esquerra de l'Eixample",1880,3,1,2.1491107,41.3844261
"Berlin, Friedrichshain",2950,2,2,13.4406259,52.5050299
"Berlin, Friedrichshain",1600,1,1,13.4461129,52.5211583
"Basel, Iselin",1813,1,1,7.570903500000001,47.56102010000001
"Berlin, Friedrichshain",3150,2,1,13.4563407,52.5136897
"Athens, Piraeus",790,1,1,23.632601199999954,37.9494798
"Istanbul, Nisantasi",1953,2,1,28.9925517,41.0518642
"Athens, Kolonaki",2300,2,1,23.744169100000022,37.97982349999999
"Athens, Piraeus",1050,2,1,23.632601199999954,37.9494798
"Athens, Agia Paraskevi",1290,2,1,23.8237552,38.0131131
"Athens, Koukaki",1890,3,1,23.724055,37.9630511
"Athens, Politeia",2030,2,2,23.82864380000001,38.076035
"Barcelona, El Born",2290,1,1,2.1846702,41.3853632
"Basel, St. Johann",2256,2,1,7.5680419,47.5684858
"Berlin, Kreuzberg",2350,2,1,13.4160581,52.5112434
"Copenhagen, Amager",3110,2,1,12.6281017,55.66562279999999
"Istanbul, Çakmak",1197,2,2,29.1254844,41.01912859999999
"Istanbul, Asmali Mescit - Sishane",1770,2,1,28.971943,41.02994899999999
"Istanbul, Suadiye",2489,3,2,29.0884,40.9601148
"Istanbul, Küçükyali",2053,2,2,29.1217169,40.9468963
"Istanbul, Ümraniye",712,1,1,29.1405705,41.0016408
"Madrid, Recoletos",1760,1,1,-3.6878103,40.4237845
"Paris, Lamarck - Caulaincourt",4300,2,1,2.3390016,48.88955620000001
"Paris, Lamarck - Caulaincourt",2200,1,1,2.328742,48.8909628
"Paris, Lamarck - Caulaincourt",4200,2,1,2.3390016,48.88955620000001
"Paris, Montmartre",3900,2,1,2.340351000000001,48.8898538
"Paris, Abbesses - Montmartre",3600,2,1,2.3418267,48.8840083
"Paris, Buttes-Chaumont",3100,2,1,2.3740212,48.87824850000001
"Paris, Buttes-Chaumont",2700,1,1,2.3740212,48.87824850000001
"Paris, Buttes-Chaumont",2700,1,1,2.3740212,48.87824850000001
"Paris, Buttes-Chaumont",3000,1,1,2.3740212,48.87824850000001
"Paris, Buttes-Chaumont",2800,1,1,2.3740212,48.87824850000001
"Paris, Buttes-Chaumont",3200,2,1,2.3740212,48.87824850000001
"Paris, Buttes-Chaumont",3200,2,1,2.3740212,48.87824850000001
"Paris, Les Halles",2930,1,1,2.3466454,48.8648616
"Paris, Grands Boulevards",3170,1,1,2.3489425,48.8716731
"Paris, Les Halles",4920,3,3,2.3491642,48.8611509
"Paris, Sentier - Montorgueil",2340,1,1,2.3490633,48.8653985
"Paris, Les Halles",2000,1,1,2.3515396,48.8628045
"Paris, Sentier - Montorgueil",2300,1,1,2.3473726,48.86673099999999
"Paris, Sentier - Montorgueil",3900,2,1,2.344977199999999,48.8670875
"Paris, Les Halles",4200,1,1,2.3498405,48.8607792
"Paris, Sentier - Montorgueil",2900,1,1,2.3495734,48.8641732
"Paris, Grands Boulevards",4700,2,1,2.3348187,48.87287389999999
"Paris, Le Marais - République",3100,1,1,2.3594762,48.8648715
"Paris, Le Marais - République",2240,1,1,2.3769186,48.862525
"Paris, Le Marais - République",3100,2,1,2.3590962,48.86562889999999
"Paris, Le Marais - République",3000,1,1,2.3569503,48.86736149999999
"Paris, Le Marais - République",3600,2,1,2.3576281,48.8654181
"Paris, Le Marais - République",1700,0,1,2.3566426,48.8677998
"Paris, Le Marais - République",3000,2,1,2.372831,48.8664052
"Paris, Le Marais - République",2200,0,1,2.3631208,48.86342229999999
"Paris, Les Halles",3400,1,1,2.3497882,48.8650761
"Paris, Louvre",3000,1,1,2.3423613,48.8609751
"Athens, Historic Center",1940,3,2,23.731501799999933,37.9756144
"Athens, Historic Center",1010,1,1,23.733074999999985,37.97480579999999
"Paris, Louvre",3000,1,1,2.3309351,48.8666283
"Athens, Historic Center",810,2,1,23.729618200000004,37.97775599999999
"Athens, Palaio Faliro",1480,2,1,23.7014857,37.9198982
"Athens, Pangrati",1590,2,2,23.7425444,37.9705116
"Athens, Pangrati",1370,2,2,23.7508706,37.96648
"Paris, Louvre",4900,1,1,2.3314477,48.86752269999999
"Athens, Pangrati",940,1,1,23.7531027,37.9722795
"Athens, Agia Paraskevi",1780,4,2,23.8130909,38.0108418
"Athens, Kolonaki",4200,4,2,23.7420124,37.97809639999999
"Paris, Miromesnil",3200,1,1,2.315515200000001,48.87285900000001
"Paris, Monceau",4100,2,1,2.3085728,48.8862426
"Paris, Monceau",4990,2,1,2.3005848,48.8843118
"Paris, Notre-Dame-de-Lorette",3900,1,1,2.3397914,48.878215
"Paris, Notre-Dame-de-Lorette",4690,2,2,2.3358016,48.8750672
"Paris, Notre-Dame-de-Lorette",4600,1,1,2.3410167,48.8784623
"Paris, Notre-Dame-de-Lorette",2400,0,1,2.3321273,48.8800598
"Paris, Odéon",3900,1,1,2.3393483,48.85202200000001
"Paris, Opéra",2900,1,1,2.3377772,48.86875870000001
"Paris, Passy",2000,0,1,2.2787,48.8557144
"Paris, Passy",5100,2,2,2.2845471,48.857406
"Paris, Passy",4990,2,1,2.2794911,48.8576533
"Paris, Passy",4200,1,1,2.2798543,48.857125
"Paris, Pigalle",5800,3,2,2.333170899999999,48.8803558
"Paris, Pigalle",2000,1,1,2.333399099999999,48.88272739999999
"Paris, Pigalle",1800,0,1,2.336966,48.8816606
"Paris, Pigalle",4090,2,1,2.3320701,48.8834966
"Madrid, Huertas/Cortes",2410,2,1,-3.700640699999999,40.4153847
"Madrid, Huertas/Cortes",2230,1,1,-3.6997333,40.4144883
"Madrid, Lavapiés",1590,2,2,-3.707507999999999,40.4078887
"Madrid, Lavapiés",1700,1,1,-3.7023392,40.41015299999999
"Madrid, Lavapiés",2060,2,2,-3.6995611,40.41170150000001
"Madrid, Malasaña",2780,2,2,-3.7023452,40.4271374
"Madrid, Recoletos",2560,2,2,-3.6813995,40.423728
"Madrid, Ríos Rosas",3600,3,2,-3.6970135,40.44520199999999
"Madrid, Lavapiés",1990,2,2,-3.7050805,40.413732
"Madrid, Malasaña",2000,2,1,-3.7062896,40.4228572
"Madrid, Malasaña",1900,2,2,-3.7050607,40.4287508
"Madrid, Nueva España",2240,2,1,-3.687723699999999,40.4605756
"Madrid, Palacio",1900,2,1,-3.709806099999999,40.4210968
"Madrid, Palacio",3700,3,2,-3.7086922,40.41246880000001
"Madrid, Recoletos",2220,1,1,-3.6893051,40.421312
"Madrid, Malasaña",2020,2,2,-3.7036806,40.424896
"Madrid, Recoletos",3650,3,2,-3.6878103,40.4237845
"Madrid, Recoletos",2620,2,2,-3.6897242,40.42232589999999
"Madrid, Recoletos",3210,2,2,-3.686841599999999,40.4254742
"Madrid, Recoletos",2390,1,1,-3.688633,40.42248730000001
"Madrid, Ríos Rosas",2840,2,2,-3.694061,40.438968
"Madrid, Ríos Rosas",3500,3,2,-3.695826799999999,40.44551019999999
"Madrid, Trafalgar",3060,3,2,-3.705157200000001,40.4301419
"Madrid, Trafalgar",2200,2,1,-3.7031621,40.4351278
"Madrid, Trafalgar",2140,2,1,-3.698887,40.4335787
"Madrid, Trafalgar",2160,2,1,-3.7031621,40.4351278
"Madrid, Trafalgar",3140,3,2,-3.7047255,40.4299267
"Madrid, Sol",2130,2,1,-3.6980716,40.4190885
"Athens, Chalandri",1020,1,1,23.805504499999984,38.0287145
"Athens, Nea Smyrni",1400,2,2,23.7104773,37.9472466
"Zurich, District 3 Wiedikon",2102,0,1,8.514229799999999,47.3755316
"Zurich, District 3 Wiedikon",2112,0,1,8.514229799999999,47.3755316
"Zurich, District 3 Wiedikon",2163,0,1,8.514229799999999,47.3755316
"Zurich, District 3 Wiedikon",1988,0,1,8.514229799999999,47.3755316
"Zurich, District 3 Wiedikon",2050,0,1,8.514229799999999,47.3755316
"Zurich, District 3 Wiedikon",2112,0,1,8.514229799999999,47.3755316
"Zurich, District 3 Wiedikon",2019,0,1,8.514229799999999,47.3755316
"Istanbul, Gayrettepe",1601,1,2,29.00953890290225,41.062567698048134
"Zurich, District 3 Wiedikon",4862,2,2,8.520587299999999,47.3606487
"Zurich, Kloten",4028,3,1,8.5831231,47.45284909999999
"Zurich, Kloten",4419,4,2,8.586400099999999,47.4503643
"Zurich, District 3 Wiedikon",1988,0,1,8.514229799999999,47.3755316
"Zurich, District 3 Wiedikon",2555,0,1,8.514229799999999,47.3755316
"Istanbul, Göktürk",1258,2,1,28.8825946,41.1814797
"Istanbul, Nisantasi",3285,3,1,28.9935608,41.0486412
"Istanbul, Kartal",1128,1,1,29.1850161,40.9088583
"Istanbul, Arnavutköy",1106,2,1,29.04240279999999,41.0688002
"Istanbul, Caddebostan",1547,3,2,29.0621313,40.9670882
"Istanbul, Etiler - Akatlar",2213,2,1,29.042493299999933,41.0858536
"Istanbul, Gayrettepe",1627,3,1,29.010092,41.05873399999999
"Istanbul, Küçükyali",1975,2,2,29.1217169,40.9468963
"Istanbul, Maslak",1460,1,1,29.01473,41.1118
"Istanbul, Sahrayicedid",1953,1,1,29.05552130000001,40.9753579
"Istanbul, Ortaköy",3277,3,2,29.020219699999984,41.0542476
"Istanbul, Sahrayicedid",1345,2,2,29.082223,40.981115
"Istanbul, Suadiye",1266,2,1,29.0807299,40.9662565
"Istanbul, Tarabya",4210,3,2,29.0459836,41.1391546
"Istanbul, Ulus",2495,3,1,29.0265029,41.062742
"Istanbul, Ulus",1866,3,1,29.027967799999942,41.0581177
"Istanbul, Tarabya",2582,4,2,29.041431200000034,41.13474490000001
"Istanbul, Mecidiyeköy",841,1,2,28.996653100000003,41.0759582
"Zurich, Zollikon",3760,1,1,8.5813107,47.3415143
"Zurich, District 8 Weinegg",3997,2,1,8.560155500000002,47.36151479999999
"Zurich, District 8 Weinegg",6284,3,1,8.559407900000002,47.36386349999999
"Zurich, District 8 Weinegg",3482,1,1,8.5572384,47.3661789
"Zurich, District 9 Altstetten",3657,2,1,8.4739635,47.3907199
"Zurich, District 9 Altstetten",3606,2,1,8.4938127,47.38531769999999
"Zurich, District 9 Altstetten",3863,2,1,8.4739635,47.3907199
